time,x,y,z,yaw,platform,trajectory,traj_double,traj_short,traj_spin,traj_time,ref_time,comptime,x_ref,y_ref,yaw_ref,z_ref,throttle_input,p_input,q_input,r_input,cbf_term_pitch_cbf,cbf_term_roll_cbf,cbf_term_thrust_cbf,cbf_term_yaw_cbf
5.090587377548218,0.054060098,-0.1290278,0.15125275,0.062041369653331735,SIM,HOVER,DblSpd,Not Short,NoSpin,0.0892171859741211,0.8892171859741211,0.00024700164794921875,1.0,1.0,0.0,-4.0,0.867461790695986,0.46855466290375264,-0.5203776127917396,0.033781507696723466,0.0,0.0,-19.897086748319456,0.0
5.190614223480225,0.05069064,-0.13640288,0.15042725,0.06201426373395069,nan,nan,nan,nan,nan,0.18924808502197266,0.9892480850219727,0.0002510547637939453,1.0,1.0,0.0,-4.0,0.8767386752482398,0.4758313989592137,-0.525085778464536,0.03564775208958754,0.0,0.0,-19.916451776628417,0.0
5.290935754776001,0.051334344,-0.13981548,0.14594236,0.06105700274716597,nan,nan,nan,nan,nan,0.2897038459777832,1.0897038459777832,0.00042176246643066406,1.0,1.0,0.0,-4.0,0.8783977480707525,0.47019218311948335,-0.5035992768114601,0.03079695641350424,0.0,0.0,-19.371484676316495,0.0
5.390556335449219,0.05271851,-0.13813269,0.114647314,0.058351607533857486,nan,nan,nan,nan,nan,0.3891870975494385,1.1891870975494385,0.0002651214599609375,1.0,1.0,0.0,-4.0,0.8785757054963305,0.33179496036151707,-0.32617959023790505,-0.013127751472686607,0.0,0.0,-17.29959052155851,0.0
5.490543365478516,0.057394795,-0.12805332,0.045469575,0.05372259452843764,nan,nan,nan,nan,nan,0.48917460441589355,1.2891746044158936,0.000225067138671875,1.0,1.0,0.0,-4.0,0.8785948114105904,0.15001346531399937,-0.15153147445419726,-0.045773770267866803,0.0,0.0,-14.902451436822147,0.0
5.590996503829956,0.071470276,-0.10834834,-0.051720764,0.04901925795500528,nan,nan,nan,nan,nan,0.5897583961486816,1.3897583961486817,0.0004680156707763672,1.0,1.0,0.0,-4.0,0.8785968628680902,0.00951642544036013,-0.027839863602054468,-0.06001948564196668,0.0,0.0,-12.554160940967698,0.0
5.69093656539917,0.1039788,-0.06848859,-0.19339573,0.044021067978801565,nan,nan,nan,nan,nan,0.6896958351135254,1.4896958351135254,0.0005452632904052734,1.0,1.0,0.0,-4.0,0.8785970831413805,-0.09187983158546895,0.06550550422443928,-0.06416724992355094,0.0,0.0,-9.819280425545866,0.0
5.790610313415527,0.1510884,-0.01480203,-0.3501569,0.03934480414491626,nan,nan,nan,nan,nan,0.7892467975616455,1.5892467975616456,0.000274658203125,1.0,1.0,0.0,-4.0,0.8785971067930417,-0.16003315829979275,0.137560843017342,-0.061322311820720996,0.0,0.0,-7.156312664934229,0.0
5.890865802764893,0.22165516,0.06437143,-0.55349886,0.034251716425101275,nan,nan,nan,nan,nan,0.889634370803833,1.689634370803833,0.0004277229309082031,1.0,1.0,0.0,-4.0,0.8785971093326195,-0.21164931281637925,0.2002698643956766,-0.052821311596712626,0.0,0.0,-4.09880741930916,0.0
5.990646123886108,0.30413345,0.157156,-0.7749202,0.029994727601360793,nan,nan,nan,nan,nan,0.9892838001251221,1.7892838001251221,0.0002455711364746094,1.0,1.0,0.0,-4.0,0.8785971096053046,-0.2635705943718826,0.2606816671238751,-0.03872965670780474,0.0,0.0,-1.1044410006293772,0.0
6.0905678272247314,0.40893584,0.274434,-1.04632,0.025565426727805818,nan,nan,nan,nan,nan,1.0892014503479004,1.8892014503479004,0.00024056434631347656,1.0,1.0,0.0,-4.0,0.8593186845067381,-0.32077848466627235,0.32427568781795996,-0.01721184289466808,0.0,0.0,0.0,0.0
6.1906397342681885,0.5190625,0.38304865,-1.3356344,0.02106586290091572,nan,nan,nan,nan,nan,1.189272403717041,1.989272403717041,0.00024437904357910156,1.0,1.0,0.0,-4.0,0.8079004303308643,-0.3699725040041521,0.39252537510316304,0.012499281919187304,0.0,0.0,0.0,0.0
6.290551662445068,0.6467377,0.49620202,-1.6768221,0.015522721705783837,nan,nan,nan,nan,nan,1.2891829013824463,2.089182901382446,0.00024509429931640625,1.0,1.0,0.0,-4.0,0.7543838977858126,-0.39686545049093797,0.458251202397833,0.048526514737546524,0.0,0.0,0.0,0.0
6.390599250793457,0.7647743,0.59235084,-2.0068438,-0.060938460631056256,nan,nan,nan,nan,nan,1.3892347812652588,2.1892347812652586,0.0002562999725341797,1.0,1.0,0.0,-4.0,0.7062453037783137,-0.41300950289280164,0.4850571748904241,0.1388429054572056,0.0,0.0,0.0,0.0
6.490601062774658,0.8823004,0.6857489,-2.3659012,-0.06352662496680314,nan,nan,nan,nan,nan,1.4892323017120361,2.289232301712036,0.0002391338348388672,1.0,1.0,0.0,-4.0,0.6658054758840851,-0.3898148899596389,0.46065229388164086,0.18204399994068043,0.0,0.0,0.17499455691154275,0.0
6.590656518936157,0.97226745,0.76076037,-2.6885993,-0.0558343089659415,nan,nan,nan,nan,nan,1.5892908573150635,2.3892908573150633,0.00023436546325683594,1.0,1.0,0.0,-4.0,0.6537821730432724,-0.3012850404961721,0.37984085560459446,0.16022884257104705,0.0,0.0,1.515914112815406,0.0
6.6906890869140625,1.0461866,0.82507426,-3.0191293,-0.03957003777728402,nan,nan,nan,nan,nan,1.6893224716186523,2.489322471618652,0.0002315044403076172,1.0,1.0,0.0,-4.0,0.652478207863216,-0.15312680862008618,0.2389577277165307,0.10417202040852173,0.0,0.0,2.7700716516241983,0.0
6.791496753692627,1.0955168,0.86734873,-3.3075547,-0.024405429998127864,nan,nan,nan,nan,nan,1.7902462482452393,2.590246248245239,0.0002562999725341797,1.0,1.0,0.0,-4.0,0.652338043046352,0.038801504348325244,0.05623329914004007,0.044369425015019885,0.0,0.0,3.825749752735294,0.0
6.890744924545288,1.1281562,0.8927326,-3.5976076,-0.007336447772082255,nan,nan,nan,nan,nan,1.889380693435669,2.6893806934356688,0.00024008750915527344,1.0,1.0,0.0,-4.0,0.6523229912002522,0.2637346619049207,-0.15750889493373263,0.004182437037590426,0.0,0.0,4.795402031901198,0.0
6.99117636680603,1.1382748,0.8953746,-3.843324,0.011908981174661354,nan,nan,nan,nan,nan,1.9898123741149902,2.78981237411499,0.00023436546325683594,1.0,1.0,0.0,-4.0,0.6523213750002471,0.5027999304403786,-0.38702383919508043,0.005846339019008868,0.0,0.0,5.455167101632293,0.0
7.091172933578491,1.1256073,0.8749956,-4.0847096,0.03453319315769309,nan,nan,nan,nan,nan,2.0898380279541016,2.8898380279541014,0.0002455711364746094,1.0,1.0,0.0,-4.0,0.6523212014618586,0.7044064869187691,-0.6114701228784315,0.06360274075605662,0.0,0.0,5.843379211867752,0.0
7.190658807754517,1.0905664,0.847482,-4.302996,0.04186312884750043,nan,nan,nan,nan,nan,2.189302682876587,2.9893026828765867,0.0002384185791015625,1.0,1.0,0.0,-4.0,0.6523211828283132,0.7942356299714177,-0.7861932373051337,0.17363305600521373,0.05752097023093483,0.0,6.225203215589925,0.0
7.290729999542236,1.0327412,0.81616175,-4.5174336,0.035795866745098374,nan,nan,nan,nan,nan,2.28936767578125,3.08936767578125,0.0002384185791015625,1.0,1.0,0.0,-4.0,0.6523211808275515,0.7108169966715061,-0.7996099931269884,0.25012883651621665,0.11373900331927603,0.0,6.557258018977107,0.0
7.3910322189331055,0.9742079,0.7957834,-4.681243,0.023185868018664818,nan,nan,nan,nan,nan,2.389803886413574,3.189803886413574,0.00043010711669921875,1.0,1.0,0.0,-4.0,0.6523211806127214,0.44867361992661137,-0.7999889832711434,0.24550737619326612,0.09168442298440355,0.0,6.897307532655867,0.0
7.4909656047821045,0.9046286,0.7864184,-4.8552237,0.0055971184466238055,nan,nan,nan,nan,nan,2.4897263050079346,3.2897263050079344,0.0004298686981201172,1.0,1.0,0.0,-4.0,0.6523211805896542,0.06179492184727021,-0.7983805809305118,0.15862690838003074,0.0,0.0,7.162045616006653,0.0
7.590999126434326,0.85093874,0.79691744,-5.0104647,-0.009438088120554272,nan,nan,nan,nan,nan,2.589754581451416,3.389754581451416,0.0004374980926513672,1.0,1.0,0.0,-4.0,0.6523211805871774,-0.40439247448030097,-0.5972960007015189,0.033532222498381316,0.0,0.0,7.4595744223673695,0.0
7.690602540969849,0.82004744,0.8319622,-5.1544333,-0.01934911367247319,nan,nan,nan,nan,nan,2.6892342567443848,3.4892342567443846,0.0002410411834716797,1.0,1.0,0.0,-4.0,0.6523211805869114,-0.7738635976027012,-0.12622267449750127,-0.0012935297985862283,0.0,0.13648876830487974,7.472275279557488,0.0
7.790715456008911,0.81729424,0.8843285,-5.26223,-0.018572186307651353,nan,nan,nan,nan,nan,2.789344549179077,3.589344549179077,0.0002799034118652344,1.0,1.0,0.0,-4.0,0.6523211805868828,-0.7992617113224859,0.5534398134735998,0.16037764012590372,0.0,0.24887502308939352,7.099120770012102,0.0
7.8905816078186035,0.8437752,0.9567172,-5.353762,-0.009489343117605928,nan,nan,nan,nan,nan,2.8892099857330322,3.689209985733032,0.00024437904357910156,1.0,1.0,0.0,-4.0,0.6523211805868798,-0.7999791451721986,0.7929143718701338,0.3979878826781807,-0.36471431316269476,0.20194451971396013,6.452365052338994,0.0
7.99087929725647,0.8953004,1.0308273,-5.4184413,5.426556192564269e-05,nan,nan,nan,nan,nan,2.9895200729370117,3.7895200729370115,0.0002503395080566406,1.0,1.0,0.0,-4.0,0.6523211805868795,-0.7999994109027325,0.7997998485429696,0.5319917700040111,-0.5363444365598333,0.050917675092805204,5.748737455546646,0.0
8.090584993362427,0.980631,1.0966848,-5.4622765,0.013032524170228904,nan,nan,nan,nan,nan,3.089219331741333,3.889219331741333,0.00024819374084472656,1.0,1.0,0.0,-4.0,0.6523211805868795,-0.6148198846843835,0.7999943462167337,0.536425224431384,-0.6020993915078905,0.0,5.072866189810164,0.0
8.190648317337036,1.0923114,1.1512992,-5.495397,0.03031581090507128,nan,nan,nan,nan,nan,3.1892881393432617,3.9892881393432615,0.00024271011352539062,1.0,1.0,0.0,-4.0,0.6523211805868795,-0.15771100580770558,0.7999998402946165,0.3508844328032147,-0.5598453323136909,0.0,4.246098082124514,0.0
8.290776491165161,1.2066265,1.1806841,-5.5064173,0.04663642464099561,nan,nan,nan,nan,nan,3.2894113063812256,4.089411306381225,0.0002446174621582031,1.0,1.0,0.0,-4.0,0.6523211805868795,0.321754292744717,0.7999999954887183,0.11554834709603541,-0.4266681411062554,0.0,3.323078075030583,0.0
8.390980005264282,1.305716,1.1802677,-5.498806,0.057253310777067315,nan,nan,nan,nan,nan,3.389643907546997,4.189643907546997,0.00024890899658203125,1.0,1.0,0.0,-4.0,0.6523211805868795,0.7103177678278572,0.7999999998725675,-0.08634882272886119,-0.14129784230044673,0.0,2.28422562642683,0.0
8.490689039230347,1.3973211,1.1495664,-5.473764,0.062221627545745783,nan,nan,nan,nan,nan,3.4893198013305664,4.289319801330566,0.00026345252990722656,1.0,1.0,0.0,-4.0,0.6523211805868795,0.7974666989136298,0.5934013321667156,-0.16963006452050322,0.0,-0.14434995006676102,1.477328620502535,0.0
8.590927839279175,1.4563832,1.0939924,-5.4330096,0.06348250023550914,nan,nan,nan,nan,nan,3.5896830558776855,4.389683055877685,0.00025534629821777344,1.0,1.0,0.0,-4.0,0.6523211805868795,0.7999284405144836,0.010873096698125457,-0.09211256625074898,0.0,-0.14591352955214132,0.4774909238358187,0.0
8.69088101387024,1.4831913,1.0204343,-5.364278,0.06599608721374892,nan,nan,nan,nan,nan,3.6896395683288574,4.489639568328857,0.0002841949462890625,1.0,1.0,0.0,-4.0,0.6605332028377287,0.7928800724336756,-0.51666776562111,0.06335715888862997,0.0,0.0,0.0,0.0
8.790616273880005,1.4686362,0.946162,-5.2841697,0.0627834449348432,nan,nan,nan,nan,nan,3.789250373840332,4.589250373840332,0.00024390220642089844,1.0,1.0,0.0,-4.0,0.6855531210165894,0.5485922752917842,-0.7787555395389855,0.14039021653059583,0.040513547245397644,0.0,0.0,0.0
8.890575647354126,1.4151361,0.87065953,-5.185799,0.04946888616798361,nan,nan,nan,nan,nan,3.8892087936401367,4.6892087936401365,0.00024819374084472656,1.0,1.0,0.0,-4.0,0.7088351270887442,0.24851053268890796,-0.7993998965741405,0.1348663844284421,0.07344265778725682,0.0,0.0,0.0
8.990640878677368,1.3383914,0.81531644,-5.0901217,0.03194371209950955,nan,nan,nan,nan,nan,3.9892897605895996,4.789289760589599,0.0002779960632324219,1.0,1.0,0.0,-4.0,0.7278979890922846,-0.02581608151554532,-0.7999830485635355,0.09438580766710367,0.012477191873425362,0.0,0.0,0.0
9.090830564498901,1.2322187,0.7763721,-4.9768286,0.007786567414963225,nan,nan,nan,nan,nan,4.0895256996154785,4.889525699615478,0.000286102294921875,1.0,1.0,0.0,-4.0,0.7433492404086524,-0.2246245289305877,-0.7261679237785656,0.05486331882809884,0.0,0.0,0.0,0.0
9.190744638442993,1.1321665,0.7600391,-4.8843665,-0.01037092540368828,nan,nan,nan,nan,nan,4.18944239616394,4.98944239616394,0.00032019615173339844,1.0,1.0,0.0,-4.0,0.7547766725642246,-0.3353042873022696,-0.5724202482496413,0.03318875034104014,0.0,0.0,0.0,0.0
9.292680740356445,1.0254594,0.76365745,-4.7873044,-0.025899494620581436,nan,nan,nan,nan,nan,4.2914018630981445,5.091401863098144,0.00033664703369140625,1.0,1.0,0.0,-4.0,0.7628664399894726,-0.37482713281328517,-0.3915754271839867,0.028432106206899097,0.0,0.0,0.0,0.0
9.39103078842163,0.9213901,0.78965557,-4.690732,-0.03775490799410985,nan,nan,nan,nan,nan,4.389770746231079,5.189770746231079,0.000362396240234375,1.0,1.0,0.0,-4.0,0.7679439465220232,-0.36478573708376805,-0.2116639670960414,0.03666500630078912,0.0,0.0,0.0,0.0
9.491560697555542,0.84371537,0.8254981,-4.6105328,-0.043635443658824574,nan,nan,nan,nan,nan,4.490271806716919,5.290271806716919,0.0003902912139892578,1.0,1.0,0.0,-4.0,0.7702048483912325,-0.31646939862487955,-0.052469616928404975,0.050205806513715735,0.0,0.0,0.0,0.0
9.591329336166382,0.7859384,0.87243116,-4.5325913,-0.046137559224687444,nan,nan,nan,nan,nan,4.590238571166992,5.390238571166992,0.0004322528839111328,1.0,1.0,0.0,-4.0,0.7707096527748919,-0.2519268968278562,0.0746561925654625,0.06218072271964776,0.0,0.0,0.0,0.0
9.691017389297485,0.75847876,0.91936165,-4.468383,-0.046233177856672636,nan,nan,nan,nan,nan,4.689779996871948,5.489779996871948,0.0004067420959472656,1.0,1.0,0.0,-4.0,0.7701306461778893,-0.1762638282214459,0.18401660771806785,0.07130199453375045,0.0,0.0,0.0,0.0
9.790892362594604,0.7542233,0.9655779,-4.4068375,-0.044740790245349965,nan,nan,nan,nan,nan,4.789704322814941,5.589704322814941,0.0004279613494873047,1.0,1.0,0.0,-4.0,0.7687226914656451,-0.10543791328615632,0.26281508100055373,0.07514409617688221,0.0,0.0,0.0,0.0
9.8914635181427,0.7704504,0.99903184,-4.355112,-0.041932932864348405,nan,nan,nan,nan,nan,4.890342473983765,5.6903424739837645,0.0004336833953857422,1.0,1.0,0.0,-4.0,0.7668012481529485,-0.03713501253579223,0.30863581536786,0.07184372732853393,0.0,0.0,0.0,0.0
9.99157977104187,0.809555,1.02335,-4.3027363,-0.03754066022630617,nan,nan,nan,nan,nan,4.990607976913452,5.790607976913452,0.0004203319549560547,1.0,1.0,0.0,-4.0,0.7650302063162386,0.025994526293080283,0.3306143636074498,0.0625978769869986,0.0,0.0,0.0,0.0
10.091527700424194,0.8605712,1.0343795,-4.2556005,-0.03315986714361239,nan,nan,nan,nan,nan,5.090543270111084,5.890543270111084,0.0004296302795410156,1.0,1.0,0.0,-4.0,0.7637481780404093,0.07751349716906296,0.3283263885118787,0.05059681446926688,0.0,0.0,0.0,0.0
10.190976858139038,0.9201423,1.0375882,-4.2219057,-0.028218823077688904,nan,nan,nan,nan,nan,5.1897759437561035,5.989775943756103,0.0008401870727539062,1.0,1.0,0.0,-4.0,0.7617446607746041,0.11700699529606437,0.2990412329985716,0.0375055198794652,0.0,0.0,0.0,0.0
10.292452096939087,0.9717106,1.03559,-4.203725,-0.024223057910932325,nan,nan,nan,nan,nan,5.291554689407349,6.0915546894073485,0.0008215904235839844,1.0,1.0,0.0,-4.0,0.7582737755405938,0.1352070439703447,0.25110993271785925,0.027481457556343087,0.0,0.0,0.0,0.0
10.392180681228638,1.0355814,1.0289023,-4.1912355,-0.01945612250561813,nan,nan,nan,nan,nan,5.3910439014434814,6.191043901443481,0.000579833984375,1.0,1.0,0.0,-4.0,0.7538160289306477,0.13301772762410552,0.19297962874454605,0.020581482304132277,0.0,0.0,0.0,0.0
10.491535186767578,1.0829786,1.0186446,-4.183084,-0.016276528283014315,nan,nan,nan,nan,nan,5.49035120010376,6.29035120010376,0.00047898292541503906,1.0,1.0,0.0,-4.0,0.7493925380146489,0.12025572699418281,0.1264457286411728,0.016984998617368543,0.0,0.0,0.0,0.0
10.591212749481201,1.1163791,1.0103614,-4.1823664,-0.011928210649349933,nan,nan,nan,nan,nan,5.59004282951355,6.39004282951355,0.00047397613525390625,1.0,1.0,0.0,-4.0,0.7449912625745919,0.0924507748659509,0.04607564490741163,0.015134779247831675,0.0,0.0,0.0,0.0
10.692767858505249,1.1374538,1.0022539,-4.184257,-0.007937010062151476,nan,nan,nan,nan,nan,5.691725969314575,6.491725969314575,0.0005972385406494141,1.0,1.0,0.0,-4.0,0.7408429686877395,0.05607305959553984,-0.0347260227969223,0.013080798567845603,0.0,0.0,0.0,0.0
10.798413276672363,1.1499442,0.995195,-4.1887836,-0.003995791819909189,nan,nan,nan,nan,nan,5.797767400741577,6.597767400741577,0.0006670951843261719,1.0,1.0,0.0,-4.0,0.7374764055813893,0.023773229096339138,-0.09576211168951045,0.01038759260421872,0.0,0.0,0.0,0.0
10.894338369369507,1.151497,0.99136394,-4.1931443,-0.0010041519515542156,nan,nan,nan,nan,nan,5.893448829650879,6.693448829650879,0.0013866424560546875,1.0,1.0,0.0,-4.0,0.7345243701057894,-0.007437275663425142,-0.14100627389666165,0.006648971948815593,0.0,0.0,0.0,0.0
10.992756128311157,1.1439081,0.9913135,-4.197027,0.0007340181017208361,nan,nan,nan,nan,nan,5.99179220199585,6.791792201995849,0.0006856918334960938,1.0,1.0,0.0,-4.0,0.7323531264588354,-0.03281565444617063,-0.17099526941401402,0.0031978533247091143,0.0,0.0,0.0,0.0
11.096075296401978,1.1227334,0.988482,-4.2047215,0.0020667028234708194,nan,nan,nan,nan,nan,6.095226526260376,6.895226526260376,0.00096893310546875,1.0,1.0,0.0,-4.0,0.730568543014745,-0.04568972536692857,-0.18635289155877188,0.00046446884584554974,0.0,0.0,0.0,0.0
11.196154594421387,1.0964402,0.9862154,-4.2113028,0.0025202490336444887,nan,nan,nan,nan,nan,6.195023536682129,6.995023536682129,0.0005018711090087891,1.0,1.0,0.0,-4.0,0.7291947456111874,-0.04422975584816645,-0.18470658394375286,-0.0009672310588420714,0.0,0.0,0.0,0.0
11.28785252571106,1.0691825,0.98720384,-4.2157483,0.002698661954496461,nan,nan,nan,nan,nan,6.287309646606445,7.087309646606445,0.0014371871948242188,1.0,1.0,0.0,-4.0,0.7284493133198492,-0.036733508380766555,-0.1713743643089692,-0.001623183488662267,0.0,0.0,0.0,0.0
11.393187999725342,1.0312685,0.9917897,-4.2209964,0.0028968326540244112,nan,nan,nan,nan,nan,6.392072677612305,7.1920726776123045,0.0005381107330322266,1.0,1.0,0.0,-4.0,0.7277045937030098,-0.03385631133114455,-0.14883452556347126,-0.0026789702960586252,0.0,0.0,0.0,0.0
11.493200540542603,0.99201214,0.99200726,-4.226282,0.0030991077471834777,nan,nan,nan,nan,nan,6.492097854614258,7.292097854614258,0.0005941390991210938,1.0,1.0,0.0,-4.0,0.7272458749066351,-0.026738472182357628,-0.13163760473285338,-0.0030053763742435577,0.0,0.0,0.0,0.0
11.5927414894104,0.9559354,0.9880555,-4.2287617,0.0032849508918142167,nan,nan,nan,nan,nan,6.5916595458984375,7.391659545898437,0.0005507469177246094,1.0,1.0,0.0,-4.0,0.7269285977299066,-0.008743385745675314,-0.09751425655076759,-0.003125994397835947,0.0,0.0,0.0,0.0
11.689203977584839,0.9279168,0.9836573,-4.230468,0.0033535377224750396,nan,nan,nan,nan,nan,6.688658714294434,7.488658714294433,0.0007555484771728516,1.0,1.0,0.0,-4.0,0.7269997130009364,0.008794475620368884,-0.062015658526481394,-0.003256885303323578,0.0,0.0,0.0,0.0
11.79330587387085,0.90294856,0.9791487,-4.2360234,0.0034425498063782164,nan,nan,nan,nan,nan,6.7922203540802,7.5922203540802,0.0005617141723632812,1.0,1.0,0.0,-4.0,0.726869586705763,0.025011898640907342,-0.0073620380823812585,-0.004062831028335646,0.0,0.0,0.0,0.0
11.875810861587524,0.891711,0.977652,-4.2458816,0.0038072434430551096,nan,nan,nan,nan,nan,6.875349760055542,7.675349760055542,0.0015339851379394531,1.0,1.0,0.0,-4.0,0.72599441241454,0.025192387783780777,0.02812036115782286,-0.005181409084544305,0.0,0.0,0.0,0.0
11.991600275039673,0.88677645,0.9804967,-4.253636,0.0044151526945885216,nan,nan,nan,nan,nan,6.991185665130615,7.791185665130615,0.0013947486877441406,1.0,1.0,0.0,-4.0,0.7252181595952293,0.015038729573779755,0.07015586330790503,-0.0065507048232731685,0.0,0.0,0.0,0.0
12.092906951904297,0.8830181,0.98344386,-4.2598777,0.0046882837566479246,nan,nan,nan,nan,nan,7.091832637786865,7.891832637786865,0.0005733966827392578,1.0,1.0,0.0,-4.0,0.7248154095015189,-0.003171127637917256,0.10824171507154261,-0.0073833217946441265,0.0,0.0,0.0,0.0
12.191896677017212,0.8847977,0.983777,-4.262683,0.004522848138608586,nan,nan,nan,nan,nan,7.190811395645142,7.990811395645141,0.0005750656127929688,1.0,1.0,0.0,-4.0,0.7248823464389799,-0.014722270316717457,0.12115318131592252,-0.007166990088455413,0.0,0.0,0.0,0.0
12.281830310821533,0.8907055,0.9827249,-4.2619047,0.004138797195711466,nan,nan,nan,nan,nan,7.281383752822876,8.081383752822877,0.0016238689422607422,1.0,1.0,0.0,-4.0,0.7251198813843462,-0.014052529152838967,0.11962018576129804,-0.006857180242704614,0.0,0.0,0.0,0.0
12.391400814056396,0.91750765,0.9883495,-4.2658844,0.004174481416891492,nan,nan,nan,nan,nan,7.390365362167358,8.190365362167359,0.002942323684692383,1.0,1.0,0.0,-4.0,0.7254675003619602,-0.015900159362440984,0.12009719415427679,-0.006343619086505095,0.0,0.0,0.0,0.0
12.487308979034424,0.9334767,0.9880567,-4.26023,0.004255811060972179,nan,nan,nan,nan,nan,7.486841201782227,8.286841201782227,0.0014262199401855469,1.0,1.0,0.0,-4.0,0.7260549770335959,-0.013926485898080957,0.11191112707445638,-0.006261784491780741,0.0,0.0,0.0,0.0
12.58983564376831,0.942895,0.9919821,-4.2580543,0.0048413376360370835,nan,nan,nan,nan,nan,7.589423418045044,8.389423418045045,0.0016276836395263672,1.0,1.0,0.0,-4.0,0.7273165443504092,-0.010095082383191557,0.08162709631193735,-0.00634832265828473,0.0,0.0,0.0,0.0
12.694974899291992,0.9566042,0.9982826,-4.2508836,0.006377520777280347,nan,nan,nan,nan,nan,7.694697380065918,8.494697380065919,0.0010411739349365234,1.0,1.0,0.0,-4.0,0.7282740653925752,-0.0125718286842097,0.03839704949813441,-0.00737368539506205,0.0,0.0,0.0,0.0
12.798342227935791,0.9651801,1.004593,-4.2407904,0.007755583280730941,nan,nan,nan,nan,nan,7.797293663024902,8.597293663024903,0.0015082359313964844,1.0,1.0,0.0,-4.0,0.7292643590212223,-0.011600515396381007,0.004843100683839317,-0.00832219601958266,0.0,0.0,0.0,0.0
12.896170377731323,0.9685407,1.0125719,-4.229899,0.009642903486664424,nan,nan,nan,nan,nan,7.895789384841919,8.69578938484192,0.0006144046783447266,1.0,1.0,0.0,-4.0,0.7302899909414661,-0.017216507709885837,-0.02528429833397959,-0.010178197436754959,0.0,0.0,0.0,0.0
12.995427131652832,0.9675309,1.0183774,-4.2223,0.011388421114959094,nan,nan,nan,nan,nan,7.994355201721191,8.794355201721192,0.0006041526794433594,1.0,1.0,0.0,-4.0,0.7319068425393345,-0.022654811933415484,-0.064844571270609,-0.013626730492546701,0.0,0.0,0.0,0.0
13.094359636306763,0.96367806,1.0276234,-4.2101254,0.012657649389836273,nan,nan,nan,nan,nan,8.093435287475586,8.893435287475587,0.0015916824340820312,1.0,1.0,0.0,-4.0,0.7327560640331778,-0.022332258342427636,-0.07838677442255458,-0.015351207178472173,0.0,0.0,0.0,0.0
13.195918798446655,0.9599798,1.0341198,-4.203369,0.013156078286019172,nan,nan,nan,nan,nan,8.194891691207886,8.994891691207886,0.0005850791931152344,1.0,1.0,0.0,-4.0,0.7334104472383749,-0.020086657442348246,-0.07884189826175939,-0.01637061133764957,0.0,0.0,0.0,0.0
13.293614149093628,0.9565283,1.0388706,-4.198874,0.013382367129012921,nan,nan,nan,nan,nan,8.292746782302856,9.092746782302857,0.0017490386962890625,1.0,1.0,0.0,-4.0,0.7333497877734404,-0.013726454392642196,-0.06767167544041487,-0.016900054374070342,0.0,0.0,0.0,0.0
13.392783880233765,0.9394704,1.0487568,-4.2024975,0.013678465244494425,nan,nan,nan,nan,nan,8.392411708831787,9.192411708831788,0.0014879703521728516,1.0,1.0,0.0,-4.0,0.7323525818380262,-0.010853440932674553,-0.064644061297143,-0.01728046668987152,0.0,0.0,0.0,0.0
13.495452880859375,0.9239027,1.052004,-4.213983,0.01367308822242441,nan,nan,nan,nan,nan,8.494564294815063,9.294564294815064,0.001508951187133789,1.0,1.0,0.0,-4.0,0.730741226930127,-0.0037830546181999475,-0.06231315030611049,-0.01723540626244676,0.0,0.0,0.0,0.0
13.596931219100952,0.9050852,1.0525141,-4.2299,0.013179180550487378,nan,nan,nan,nan,nan,8.596596956253052,9.396596956253052,0.0015599727630615234,1.0,1.0,0.0,-4.0,0.7285809498831347,0.008591383764788572,-0.05523365208129369,-0.016710451551577472,0.0,0.0,0.0,0.0
13.687415599822998,0.89314544,1.0478976,-4.24249,0.0122613617105405,nan,nan,nan,nan,nan,8.686680316925049,9.48668031692505,0.0018188953399658203,1.0,1.0,0.0,-4.0,0.7265392897569417,0.022209654973646662,-0.04309995697754325,-0.01577507397961595,0.0,0.0,0.0,0.0
13.798507928848267,0.8856808,1.0382988,-4.2535205,0.010703928325704335,nan,nan,nan,nan,nan,8.797552347183228,9.597552347183228,0.0006155967712402344,1.0,1.0,0.0,-4.0,0.7245884825419293,0.0429272429805455,-0.018491356937065582,-0.014046066643685455,0.0,0.0,0.0,0.0
13.8855562210083,0.8838093,1.0325313,-4.25717,0.009831648407390058,nan,nan,nan,nan,nan,8.884850263595581,9.684850263595582,0.0023529529571533203,1.0,1.0,0.0,-4.0,0.7239767295167739,0.051641771765906806,0.007534072504528653,-0.01302839940912875,0.0,0.0,0.0,0.0
14.000749349594116,0.8861478,1.0228437,-4.2585773,0.008756390445819294,nan,nan,nan,nan,nan,8.999884366989136,9.799884366989136,0.0015251636505126953,1.0,1.0,0.0,-4.0,0.7243895602533431,0.04966310258894971,0.036675675420485256,-0.01246459732829806,0.0,0.0,0.0,0.0
14.08688497543335,0.8881909,1.0162396,-4.2583766,0.008107565769751003,nan,nan,nan,nan,nan,9.08667254447937,9.88667254447937,0.0015218257904052734,1.0,1.0,0.0,-4.0,0.7251935465989445,0.04023012864048863,0.05467770218357527,-0.01209712505819104,0.0,0.0,0.0,0.0
14.197030067443848,0.89117837,1.0090647,-4.25826,0.007417416526260712,nan,nan,nan,nan,nan,9.19603180885315,9.99603180885315,0.0005850791931152344,1.0,1.0,0.0,-4.0,0.7261765746108279,0.020619155748766743,0.059667617617958704,-0.011216517101095568,0.0,0.0,0.0,0.0
14.29695200920105,0.8965796,1.0057188,-4.2584257,0.007074552138271082,nan,nan,nan,nan,nan,9.295906782150269,10.09590678215027,0.0016431808471679688,1.0,1.0,0.0,-4.0,0.726666734183516,0.0013253561490339909,0.05418561338560307,-0.010271538407448412,0.0,0.0,0.0,0.0
14.397391080856323,0.903766,1.0077827,-4.2556624,0.007611023652482235,nan,nan,nan,nan,nan,9.396333694458008,10.196333694458009,0.0006258487701416016,1.0,1.0,0.0,-4.0,0.7271628880070888,-0.022661558376572254,0.04573458798598257,-0.009912589903130603,0.0,0.0,0.0,0.0
14.496434926986694,0.9094386,1.0084898,-4.255971,0.008322217257011539,nan,nan,nan,nan,nan,9.495378494262695,10.295378494262696,0.0005860328674316406,1.0,1.0,0.0,-4.0,0.7276834577747872,-0.04412325045894213,0.032904447886091426,-0.010359066084723012,0.0,0.0,0.0,0.0
14.58883023262024,0.91206175,1.0063636,-4.2523065,0.008841752095577367,nan,nan,nan,nan,nan,9.588670015335083,10.388670015335084,0.000690460205078125,1.0,1.0,0.0,-4.0,0.7280722459085831,-0.04828463369344523,0.020208740410807138,-0.01082597800532408,0.0,0.0,0.0,0.0
14.692638874053955,0.91316825,1.0023842,-4.246537,0.00878814555708759,nan,nan,nan,nan,nan,9.691566228866577,10.491566228866578,0.0005953311920166016,1.0,1.0,0.0,-4.0,0.7287019986311296,-0.03741116499934285,-0.0009182889413922898,-0.011070944481624117,0.0,0.0,0.0,0.0
14.792106628417969,0.9181789,0.9971238,-4.241075,0.008135888849737892,nan,nan,nan,nan,nan,9.791182041168213,10.591182041168214,0.0016644001007080078,1.0,1.0,0.0,-4.0,0.7292730890949986,-0.019927832906380488,-0.012685568527151036,-0.010639642371920615,0.0,0.0,0.0,0.0
14.884103536605835,0.9296416,0.99466527,-4.2428904,0.0073618829679798665,nan,nan,nan,nan,nan,9.884289264678955,10.684289264678956,0.0016150474548339844,1.0,1.0,0.0,-4.0,0.7294060462047263,0.0022651254654574115,-0.007633809471350182,-0.00947583355308357,0.0,0.0,0.0,0.0
14.994261980056763,0.9417311,0.9925466,-4.2418666,0.0063405616730334334,nan,nan,nan,nan,nan,9.993374109268188,10.79337410926819,0.0008296966552734375,1.0,1.0,0.0,-4.0,0.7292104289788148,0.014372630713010696,0.004964963256252496,-0.008403046563070567,0.0,0.0,0.0,0.0
15.096627712249756,0.95193297,0.98864377,-4.2427773,0.005547606724887905,nan,nan,nan,nan,nan,10.095796346664429,10.89579634666443,0.0008711814880371094,1.0,1.0,0.0,-4.0,0.7290424274502604,0.020143348286957647,0.0120657298086626,-0.007541897312696274,0.0,0.0,0.0,0.0
15.198952198028564,0.9597844,0.9843201,-4.245933,0.004893152372456409,nan,nan,nan,nan,nan,10.197914600372314,10.997914600372315,0.0006449222564697266,1.0,1.0,0.0,-4.0,0.7285260880533218,0.024996255004862692,0.013807015377038203,-0.0066684016756915964,0.0,0.0,0.0,0.0
15.28820538520813,0.9627999,0.9827781,-4.2525573,0.004628124852760736,nan,nan,nan,nan,nan,10.287737369537354,11.087737369537354,0.0009529590606689453,1.0,1.0,0.0,-4.0,0.7275079600989357,0.021089653561225555,0.0058943809339094015,-0.006039160764205211,0.0,0.0,0.0,0.0
15.397364854812622,0.9624105,0.98446536,-4.259976,0.004566043724909501,nan,nan,nan,nan,nan,10.396470785140991,11.196470785140992,0.0007708072662353516,1.0,1.0,0.0,-4.0,0.7264198284807238,0.009302822517762705,-0.00807629124389277,-0.005579533603022866,0.0,0.0,0.0,0.0
15.494203090667725,0.96240324,0.98539776,-4.2638783,0.004588237314587617,nan,nan,nan,nan,nan,10.493169784545898,11.2931697845459,0.0006945133209228516,1.0,1.0,0.0,-4.0,0.7257999984241934,-0.004598634143649484,-0.020264422683647376,-0.005414468089417696,0.0,0.0,0.0,0.0
15.598573207855225,0.96173966,0.985244,-4.2635884,0.004478850080120894,nan,nan,nan,nan,nan,10.597580909729004,11.397580909729005,0.000652313232421875,1.0,1.0,0.0,-4.0,0.7258398276918997,-0.013213712812173697,-0.02495510926445332,-0.005347901499414112,0.0,0.0,0.0,0.0
15.686517477035522,0.9609168,0.984402,-4.2587876,0.004211045814158977,nan,nan,nan,nan,nan,10.685506343841553,11.485506343841553,0.0008115768432617188,1.0,1.0,0.0,-4.0,0.7264071067866931,-0.015190052138391426,-0.025675419510024645,-0.005169470460822209,0.0,0.0,0.0,0.0
15.793534994125366,0.96198964,0.984392,-4.2530203,0.003915282891136839,nan,nan,nan,nan,nan,10.792669773101807,11.592669773101807,0.0010433197021484375,1.0,1.0,0.0,-4.0,0.7274113418809278,-0.013530620266655429,-0.020064515347981468,-0.004842125646870942,0.0,0.0,0.0,0.0
15.89156174659729,0.96092564,0.9844922,-4.2527366,0.0034996677346028496,nan,nan,nan,nan,nan,10.89064335823059,11.690643358230592,0.000762939453125,1.0,1.0,0.0,-4.0,0.72796051399522,-0.009691213093909063,-0.013143279643308031,-0.004463954818722832,0.0,0.0,0.0,0.0
15.998106956481934,0.9586072,0.9853573,-4.2550926,0.0032840962877365917,nan,nan,nan,nan,nan,10.99722695350647,11.79722695350647,0.0010957717895507812,1.0,1.0,0.0,-4.0,0.7278345596214012,-0.005973371291221041,-0.008872996960627268,-0.004097617444905637,0.0,0.0,0.0,0.0
16.096433877944946,0.9543135,0.9853641,-4.2613797,0.003218765721332763,nan,nan,nan,nan,nan,11.095529079437256,11.895529079437257,0.0007579326629638672,1.0,1.0,0.0,-4.0,0.7272842768209902,-0.003514173514401646,-0.00845484705876691,-0.0039273365843175995,0.0,0.0,0.0,0.0
16.197903394699097,0.9514121,0.9835564,-4.266272,0.0032566899945805318,nan,nan,nan,nan,nan,11.196875095367432,11.996875095367432,0.0009002685546875,1.0,1.0,0.0,-4.0,0.7262928565438604,0.0014721042874504026,-0.010746949122518145,-0.003930991974446748,0.0,0.0,0.0,0.0
16.290185928344727,0.9530628,0.97722393,-4.2709336,0.0029671141329557843,nan,nan,nan,nan,nan,11.289324522018433,12.089324522018433,0.0008177757263183594,1.0,1.0,0.0,-4.0,0.7256857907893745,0.012444545872100655,-0.005801890313129897,-0.003743617170999007,0.0,0.0,0.0,0.0
16.39770531654358,0.957429,0.969115,-4.275977,0.0024556418413142255,nan,nan,nan,nan,nan,11.39673662185669,12.19673662185669,0.0006101131439208984,1.0,1.0,0.0,-4.0,0.7254255529538054,0.02353606401442701,0.0032428469061255498,-0.0034653768743765417,0.0,0.0,0.0,0.0
16.490432024002075,0.9624775,0.9645702,-4.277018,0.001969636026659639,nan,nan,nan,nan,nan,11.490149736404419,12.29014973640442,0.0008695125579833984,1.0,1.0,0.0,-4.0,0.725445799139614,0.028860982968152343,0.012339036646772482,-0.003178879116424435,0.0,0.0,0.0,0.0
16.584905862808228,0.969574,0.9619496,-4.277272,0.0014685915137675875,nan,nan,nan,nan,nan,11.584614276885986,12.384614276885987,0.0016009807586669922,1.0,1.0,0.0,-4.0,0.7257398463099064,0.027629090627607815,0.020894992002169273,-0.0028521577185039605,0.0,0.0,0.0,0.0
16.70167899131775,0.9788027,0.96295893,-4.2785287,0.0009955287141218943,nan,nan,nan,nan,nan,11.701404333114624,12.501404333114625,0.0014731884002685547,1.0,1.0,0.0,-4.0,0.7258670607798355,0.009049263226403568,0.03431511662542526,-0.002232609434802653,0.0,0.0,0.0,0.0
16.795019149780273,0.98505276,0.96662414,-4.273109,0.0009747800393834286,nan,nan,nan,nan,nan,11.79410171508789,12.594101715087891,0.0008645057678222656,1.0,1.0,0.0,-4.0,0.7264278215280321,-0.00786338260787144,0.035159701704375164,-0.0018778699850889216,0.0,0.0,0.0,0.0
16.890223264694214,0.9872615,0.96929365,-4.2640247,0.0009751402632856444,nan,nan,nan,nan,nan,11.88987684249878,12.68987684249878,0.001508474349975586,1.0,1.0,0.0,-4.0,0.727529202442436,-0.02390059349792527,0.02674417239794741,-0.001556747034277333,0.0,0.0,0.0,0.0
16.99257469177246,0.9916385,0.96908313,-4.260249,0.0008325737220839617,nan,nan,nan,nan,nan,11.991710186004639,12.79171018600464,0.002279996871948242,1.0,1.0,0.0,-4.0,0.7288791734687046,-0.03194030838309046,0.01015729895578448,-0.0012575690085056307,0.0,0.0,0.0,0.0
17.09327244758606,0.99757814,0.96626884,-4.260429,0.0004991697191941754,nan,nan,nan,nan,nan,12.092236280441284,12.892236280441285,0.0006296634674072266,1.0,1.0,0.0,-4.0,0.728916604479466,-0.024051404766596673,0.00339317132956474,-0.0008226349620811362,0.0,0.0,0.0,0.0
17.195605993270874,1.0024189,0.9614484,-4.258806,0.0001526808107950063,nan,nan,nan,nan,nan,12.194571256637573,12.994571256637574,0.0006127357482910156,1.0,1.0,0.0,-4.0,0.7285568990424449,-0.0058343612036494685,-0.0008720062256815849,-0.00034408391744155395,0.0,0.0,0.0,0.0
17.300687789916992,0.99891716,0.95852095,-4.251065,0.00029452942100544836,nan,nan,nan,nan,nan,12.299671649932861,13.099671649932862,0.0006251335144042969,1.0,1.0,0.0,-4.0,0.7288194867634682,0.009947375566575089,-0.01388073860382346,-6.436781589282754e-05,0.0,0.0,0.0,0.0
17.39321279525757,0.99433553,0.95557934,-4.242512,0.0004475020455520125,nan,nan,nan,nan,nan,12.39289927482605,13.19289927482605,0.0015246868133544922,1.0,1.0,0.0,-4.0,0.7296464609702492,0.0201484329662612,-0.027665941590489768,7.348436992859721e-05,0.0,0.0,0.0,0.0
17.4900324344635,0.9873817,0.9523399,-4.2313104,0.0005731094661839261,nan,nan,nan,nan,nan,12.489121437072754,13.289121437072755,0.0008246898651123047,1.0,1.0,0.0,-4.0,0.7304975079955918,0.02378130950214759,-0.03661168819307638,0.00019195135669489174,0.0,0.0,0.0,0.0
17.586209535598755,0.9765082,0.9499085,-4.2209954,0.0006517975304132177,nan,nan,nan,nan,nan,12.58585786819458,13.38585786819458,0.001470804214477539,1.0,1.0,0.0,-4.0,0.7315484359252745,0.02127064050148661,-0.04481907385088295,0.00030056785493299133,0.0,0.0,0.0,0.0
17.689456939697266,0.96713936,0.9495468,-4.217952,0.0007428353065267561,nan,nan,nan,nan,nan,12.688592195510864,13.488592195510865,0.0008070468902587891,1.0,1.0,0.0,-4.0,0.7314790386611775,0.012286654124609086,-0.0475607347885544,0.00019649451809789818,0.0,0.0,0.0,0.0
17.796297550201416,0.9646828,0.94966894,-4.211089,0.0007613044226877277,nan,nan,nan,nan,nan,12.795950889587402,13.595950889587403,0.0014801025390625,1.0,1.0,0.0,-4.0,0.7313057787345763,-0.002065106911177183,-0.036327458640639375,-0.00026671621554518393,0.0,0.0,0.0,0.0
17.899155616760254,0.96025646,0.9513716,-4.2025204,0.0007998547405096632,nan,nan,nan,nan,nan,12.898128509521484,13.698128509521485,0.0006711483001708984,1.0,1.0,0.0,-4.0,0.7314508396857964,-0.01499486362662515,-0.01724759418488234,-0.000734975266435158,0.0,0.0,0.0,0.0
17.998931169509888,0.9599801,0.9531225,-4.197324,0.0008251795377875806,nan,nan,nan,nan,nan,12.99852728843689,13.79852728843689,0.0014994144439697266,1.0,1.0,0.0,-4.0,0.7315694381623126,-0.024518794652833954,0.001598833960040652,-0.0010396107625249566,0.0,0.0,0.0,0.0
18.09338140487671,0.9641957,0.9541392,-4.192813,0.0008126814797656274,nan,nan,nan,nan,nan,13.092352390289307,13.892352390289307,0.0006375312805175781,1.0,1.0,0.0,-4.0,0.7313991318243295,-0.02576987805944846,0.0220307704711736,-0.0012091286635676568,0.0,0.0,0.0,0.0
18.195577383041382,0.9728215,0.95179975,-4.1866956,0.0005334431148648483,nan,nan,nan,nan,nan,13.195265054702759,13.99526505470276,0.0014727115631103516,1.0,1.0,0.0,-4.0,0.7313019105246887,-0.016571691408403113,0.04373500469415202,-0.0011762503998145474,0.0,0.0,0.0,0.0
18.288179874420166,0.9843996,0.95025605,-4.1819067,0.0002570247278582474,nan,nan,nan,nan,nan,13.287399053573608,14.087399053573609,0.0008335113525390625,1.0,1.0,0.0,-4.0,0.7312868785891342,-0.005203468198413192,0.057866322368758875,-0.0011236600944688575,0.0,0.0,0.0,0.0
18.394397735595703,0.99684554,0.94509375,-4.178496,-8.419254129694766e-05,nan,nan,nan,nan,nan,13.393345832824707,14.193345832824708,0.0006096363067626953,1.0,1.0,0.0,-4.0,0.7311695827841139,0.008896428009124296,0.06308485842919816,-0.0010392147679466382,0.0,0.0,0.0,0.0
18.492398738861084,1.0109444,0.9388929,-4.17417,-0.00043457272942424695,nan,nan,nan,nan,nan,13.491600513458252,14.291600513458253,0.0016932487487792969,1.0,1.0,0.0,-4.0,0.7308850497506009,0.02035293518662103,0.058343987552909295,-0.0008993041047474715,0.0,0.0,0.0,0.0
18.598806142807007,1.0240424,0.9347072,-4.1701574,-0.0007925867392460529,nan,nan,nan,nan,nan,13.59793472290039,14.397934722900391,0.0016176700592041016,1.0,1.0,0.0,-4.0,0.7308482670208086,0.025911222293458186,0.051136172101712146,-0.00038471054879262736,0.0,0.0,0.0,0.0
18.69689702987671,1.0399146,0.93208885,-4.171785,-0.0010661036939584928,nan,nan,nan,nan,nan,13.69587254524231,14.49587254524231,0.0006191730499267578,1.0,1.0,0.0,-4.0,0.7302898387608991,0.021472118469701987,0.04145458422851567,0.0002098363945814464,0.0,0.0,0.0,0.0
18.795164108276367,1.044135,0.93323374,-4.1790233,-0.0010568476810930826,nan,nan,nan,nan,nan,13.79488492012024,14.59488492012024,0.001588582992553711,1.0,1.0,0.0,-4.0,0.7291736001182579,0.010552680316279575,0.023323094463082988,0.0008252332688753704,0.0,0.0,0.0,0.0
18.89280080795288,1.0502084,0.93095523,-4.1905656,-0.0009523727523782447,nan,nan,nan,nan,nan,13.89176893234253,14.69176893234253,0.0006117820739746094,1.0,1.0,0.0,-4.0,0.727476966486213,-0.0019455206411790188,-0.002464862649238771,0.0013002481197042055,0.0,0.0,0.0,0.0
18.994543075561523,1.0548371,0.9265471,-4.1992908,-0.0009150821860518799,nan,nan,nan,nan,nan,13.993637800216675,14.793637800216676,0.0008144378662109375,1.0,1.0,0.0,-4.0,0.7257641306986559,-0.005893666846368909,-0.02362688907076831,0.0015922508802015893,0.0,0.0,0.0,0.0
19.094489574432373,1.0587718,0.9207577,-4.205924,-0.0009703627256423472,nan,nan,nan,nan,nan,14.093533277511597,14.893533277511597,0.0006694793701171875,1.0,1.0,0.0,-4.0,0.7247174858839135,-0.0012744110759522035,-0.03297029093119432,0.0018411324929868452,0.0,0.0,0.0,0.0
19.188226222991943,1.0605732,0.9113592,-4.217909,-0.0010486232921393859,nan,nan,nan,nan,nan,14.187171697616577,14.987171697616578,0.0007994174957275391,1.0,1.0,0.0,-4.0,0.7237392714403477,0.010338188359347727,-0.03548522348803466,0.0021259390300657826,0.0,0.0,0.0,0.0
19.283066749572754,1.062136,0.89950365,-4.2298036,-0.0010860164590985044,nan,nan,nan,nan,nan,14.283078908920288,15.083078908920289,0.002152681350708008,1.0,1.0,0.0,-4.0,0.7228183823381835,0.025332735339366346,-0.03407110797930267,0.00236567254449064,0.0,0.0,0.0,0.0
19.388985633850098,1.06276,0.8900652,-4.2376323,-0.0010812511955157148,nan,nan,nan,nan,nan,14.388116121292114,15.188116121292115,0.0009145736694335938,1.0,1.0,0.0,-4.0,0.7222906915775498,0.035716710643789944,-0.028397475613275214,0.002329143656441207,0.0,0.0,0.0,0.0
19.497109413146973,1.060372,0.8867243,-4.2384996,-0.0011507429474600425,nan,nan,nan,nan,nan,14.49663257598877,15.29663257598877,0.0015332698822021484,1.0,1.0,0.0,-4.0,0.7226656221472181,0.027059747369750888,-0.021422428084082578,0.0021603442500624614,0.0,0.0,0.0,0.0
19.597227811813354,1.0533394,0.88679403,-4.233088,-0.0010387800984913865,nan,nan,nan,nan,nan,14.596343517303467,15.396343517303468,0.002203226089477539,1.0,1.0,0.0,-4.0,0.7239450762829817,0.006132978546220587,-0.022084347001863458,0.002022470225285624,0.0,0.0,0.0,0.0
19.68915104866028,1.0497392,0.88819003,-4.2278748,-0.0008542744946582453,nan,nan,nan,nan,nan,14.688308000564575,15.488308000564576,0.0007944107055664062,1.0,1.0,0.0,-4.0,0.7251946929399996,-0.011880906260490239,-0.020968178855796167,0.0017069949597205835,0.0,0.0,0.0,0.0
19.798855781555176,1.0450199,0.8906434,-4.2229824,-0.0005509611679238406,nan,nan,nan,nan,nan,14.79794716835022,15.59794716835022,0.0007970333099365234,1.0,1.0,0.0,-4.0,0.7268113159467762,-0.03143133581579505,-0.016482923565319718,0.0011129997892003183,0.0,0.0,0.0,0.0
19.897656440734863,1.0356544,0.8934274,-4.218621,-0.00015743859105235222,nan,nan,nan,nan,nan,14.897540807723999,15.697540807724,0.001337289810180664,1.0,1.0,0.0,-4.0,0.7275638081657161,-0.0373989508252233,-0.015172799821823894,0.0007049063139890262,0.0,0.0,0.0,0.0
19.984134435653687,1.0258754,0.8975977,-4.214318,0.00020753262188448474,nan,nan,nan,nan,nan,14.9832444190979,15.783244419097901,0.0022649765014648438,1.0,1.0,0.0,-4.0,0.7282719830914582,-0.037775453640835524,-0.019542084980548522,0.00020945869974282495,0.0,0.0,0.0,0.0
