time,x,y,z,yaw,platform,trajectory,traj_double,traj_short,traj_spin,traj_time,ref_time,comptime,x_ref,y_ref,yaw_ref,z_ref,throttle_input,p_input,q_input,r_input,cbf_term_pitch_cbf,cbf_term_roll_cbf,cbf_term_thrust_cbf,cbf_term_yaw_cbf
8.004555225372314,0.19550192,0.013295742,-1.6933676,1.553209601489415,SIM,HOVER,DblSpd,Not Short,Spin,2.86102294921875e-06,0.8000028610229493,0.019138336181640625,1.0,1.0,0.0,-4.0,0.7877379221442351,-0.27036480432113996,-0.3823791750633532,-0.5832364572858039,0.0,0.0,0.0,0.0
8.243192195892334,0.22125484,0.0054175407,-1.7209005,1.5547192522826028,nan,nan,nan,nan,nan,0.23806357383728027,1.0380635738372803,0.001135110855102539,1.0,1.0,0.0,-4.0,0.8067188001956613,-0.3162934312768356,-0.5076654225443473,-0.6482655201000627,0.3029797345760234,0.0,-6.418263741105241,1.1611717910030679
8.282495498657227,0.22520192,0.004331358,-1.7274748,1.5549953747574754,nan,nan,nan,nan,nan,0.27800464630126953,1.0780046463012696,0.0015377998352050781,1.0,1.0,0.0,-4.0,0.8333010609931286,-0.3129374230859869,-0.6567560570467302,-0.7256501048490307,0.19349934901509164,0.0,-6.45405862957541,1.040840629385737
8.391431331634521,0.23071596,0.0060823956,-1.739504,1.5475906886554642,nan,nan,nan,nan,nan,0.38634705543518066,1.1863470554351807,0.0007367134094238281,1.0,1.0,0.0,-4.0,0.8692912231415048,-0.2692085922234312,-0.7882032453488436,-0.7938769664297686,0.004255012628337107,0.0,-5.659217787337554,0.9299086703878068
8.490605354309082,0.23285972,0.010788673,-1.7778769,1.5238031601581963,nan,nan,nan,nan,nan,0.4855220317840576,1.2855220317840577,0.0009090900421142578,1.0,1.0,0.0,-4.0,0.8766536174890572,-0.2631121346352898,-0.6026823577187832,-0.7994957418564471,0.0,0.0,-3.389758160589987,0.9310594494789082
8.59947395324707,0.23829518,0.032267436,-1.8703496,1.4746771631146829,nan,nan,nan,nan,nan,0.5942990779876709,1.394299077987671,0.0006952285766601562,1.0,1.0,0.0,-4.0,0.8783886325096365,-0.31454635573930956,-0.25677171072667193,-0.799985755955534,0.0,0.0,-0.6523988075034617,0.9506246605016729
8.700525760650635,0.25041452,0.07381599,-1.9868432,1.4197055694750165,nan,nan,nan,nan,nan,0.6954326629638672,1.4954326629638672,0.0007462501525878906,1.0,1.0,0.0,-4.0,0.8663306386140571,-0.36152632340976953,-0.017687434761300434,-0.7999991788591823,0.0,0.0,0.0,0.918669867425242
8.790358781814575,0.2660489,0.15602808,-2.1666794,1.3544712130440404,nan,nan,nan,nan,nan,0.7854702472686768,1.5854702472686768,0.0014629364013671875,1.0,1.0,0.0,-4.0,0.8306532440543782,-0.41186613598405336,0.2112957145996251,-0.7999999323755228,0.0,0.0,0.0,0.8757220952503147
8.89722752571106,0.29588044,0.26192912,-2.3497093,1.2963422085740035,nan,nan,nan,nan,nan,0.8921413421630859,1.692141342163086,0.0007548332214355469,1.0,1.0,0.0,-4.0,0.7861371264511635,-0.45541700451773093,0.4699129719702815,-0.7999999961015836,0.0,0.0,0.0,0.7618766898825688
8.997605085372925,0.33046874,0.36789823,-2.516134,1.2421145596073702,nan,nan,nan,nan,nan,0.992518424987793,1.792518424987793,0.0007610321044921875,1.0,1.0,0.0,-4.0,0.7483978978208833,-0.4528112044831019,0.7048707509186,-0.7999999996789487,0.0,0.0,0.0,0.6091093636279565
9.096661806106567,0.3933981,0.5452414,-2.7765107,1.1525115770456473,nan,nan,nan,nan,nan,1.0915703773498535,1.8915703773498536,0.0007517337799072266,1.0,1.0,0.0,-4.0,0.7166183835336278,-0.3947235561977104,0.7914781972551234,-0.7999999999735601,-0.14284566238658092,0.0,0.0,0.42782488524109186
9.194084405899048,0.43996143,0.66693723,-2.9501834,1.0874092893857696,nan,nan,nan,nan,nan,1.1892075538635254,1.9892075538635254,0.0006561279296875,1.0,1.0,0.0,-4.0,0.6919692770793435,-0.2984170481540436,0.7992981929002076,-0.7999999999978226,-0.22095895992638642,0.0,0.0,0.2450202828577798
9.301002264022827,0.53241915,0.8369243,-3.1941757,0.9763874561944613,nan,nan,nan,nan,nan,1.2959067821502686,2.0959067821502684,0.0008945465087890625,1.0,1.0,0.0,-4.0,0.6729928485463186,-0.15741404666134826,0.7999595422172933,-0.7999999999998745,-0.2246399571979329,0.0,0.0,0.09578710596156914
9.39870023727417,0.60027146,0.9409399,-3.3469422,0.8943770433870315,nan,nan,nan,nan,nan,1.3944001197814941,2.194400119781494,0.0015163421630859375,1.0,1.0,0.0,-4.0,0.6607864734865313,-0.005318479392826225,0.7999966681276257,-0.792306178473419,-0.13729677115976519,0.0,0.0,0.0
9.493449449539185,0.69911844,1.0645213,-3.5360844,0.8417998150949279,nan,nan,nan,nan,nan,1.4883239269256592,2.288323926925659,0.002424001693725586,1.0,1.0,0.0,-4.0,0.6542237074331757,0.20998859883021512,0.799999725605983,-0.7983245854099948,-0.04409559177340076,0.0,0.1284340227522952,0.0
9.601080656051636,0.77883875,1.1378108,-3.66401,0.7458135463384639,nan,nan,nan,nan,nan,1.5959155559539795,2.3959155559539793,0.0006961822509765625,1.0,1.0,0.0,-4.0,0.6525768508228276,0.38273485503541005,0.5969517754747404,-0.7893703077874282,0.0,0.0,0.32612437171091724,0.0
9.688291072845459,0.8806396,1.1937463,-3.8070426,0.6272074187126028,nan,nan,nan,nan,nan,1.6832399368286133,2.483239936828613,0.0009663105010986328,1.0,1.0,0.0,-4.0,0.6523748066994131,0.4888709122142465,0.3342717069318175,-0.7700800468237698,0.0,0.0,0.3704543035332759,0.0
9.800508499145508,0.95251703,1.2081914,-3.9076598,0.5378319623801155,nan,nan,nan,nan,nan,1.795461893081665,2.595461893081665,0.0016045570373535156,1.0,1.0,0.0,-4.0,0.6523324271575938,0.5873089653192981,-0.006044844146772882,-0.7015063448397807,0.0,0.0,0.31801891531238063,0.0
9.900426149368286,1.0108974,1.1928107,-3.997275,0.4413261685737734,nan,nan,nan,nan,nan,1.8954505920410156,2.6954505920410154,0.0007650852203369141,1.0,1.0,0.0,-4.0,0.6523241288263821,0.633705165968695,-0.32251755036346363,-0.5763449246078455,0.0,0.0,0.07118771252887787,0.0
9.998456478118896,1.0452559,1.1476715,-4.0672746,0.33485006307520915,nan,nan,nan,nan,nan,1.993232250213623,2.793232250213623,0.0006196498870849609,1.0,1.0,0.0,-4.0,0.6560993385937284,0.6033901618147326,-0.602462887164085,-0.3977827018619621,0.0,0.0,0.0,0.0
10.09829044342041,1.0430251,1.077847,-4.1142826,0.2240527798107398,nan,nan,nan,nan,nan,2.0932345390319824,2.8932345390319822,0.00074005126953125,1.0,1.0,0.0,-4.0,0.6657759367063032,0.5032046478507167,-0.7626628939680603,-0.2328736725146948,0.0,0.0,0.0,0.0
10.190988779067993,1.0139264,1.0188509,-4.137701,0.14320985955268625,nan,nan,nan,nan,nan,2.1857972145080566,2.9857972145080565,0.0006120204925537109,1.0,1.0,0.0,-4.0,0.6756517894533665,0.3703104403648017,-0.7937247525892119,-0.11356484971489303,0.020382477080048117,0.0,0.0,0.0
10.297896146774292,0.95457,0.9573641,-4.14917,0.05688474329433038,nan,nan,nan,nan,nan,2.29284405708313,3.0928440570831297,0.000789642333984375,1.0,1.0,0.0,-4.0,0.6900302925010349,0.1555075456280683,-0.7680208837847704,-0.0007181387678994042,0.0,0.0,0.0,0.0
10.393055200576782,0.8870641,0.90728986,-4.1482034,-0.015127287311306255,nan,nan,nan,nan,nan,2.387859344482422,3.1878593444824217,0.0006375312805175781,1.0,1.0,0.0,-4.0,0.6993786960057596,0.008223152491922636,-0.6520927475048018,0.05168350169146687,0.0,0.0,0.0,0.0
10.486352682113647,0.8068935,0.87189776,-4.1404395,-0.07975805515084022,nan,nan,nan,nan,nan,2.481855630874634,3.2818556308746336,0.0016605854034423828,1.0,1.0,0.0,-4.0,0.7070292975415421,-0.10512925717179575,-0.4820423926595121,0.09060797582231493,0.0,0.0,0.0,0.0
10.600799560546875,0.7452366,0.86232626,-4.1308246,-0.11969287316868639,nan,nan,nan,nan,nan,2.5956127643585205,3.3956127643585203,0.0007379055023193359,1.0,1.0,0.0,-4.0,0.7138941037729247,-0.20692601944219277,-0.2462630011173255,0.1316063365744141,0.0,0.0,0.0,0.0
10.692994832992554,0.7050583,0.86458117,-4.119273,-0.14118164196056188,nan,nan,nan,nan,nan,2.687807559967041,3.487807559967041,0.0006008148193359375,1.0,1.0,0.0,-4.0,0.7188659697127011,-0.25372693098872484,-0.048716532058444784,0.1632911530127042,0.0,0.0,0.0,0.0
10.799535036087036,0.6667527,0.88439447,-4.101451,-0.1543994997099382,nan,nan,nan,nan,nan,2.7950451374053955,3.5950451374053953,0.0009307861328125,1.0,1.0,0.0,-4.0,0.7238516726639646,-0.2676431542478964,0.14318749911124068,0.190770915875646,0.0,0.0,0.0,0.0
10.885295867919922,0.6546495,0.9145072,-4.079381,-0.1556489668205793,nan,nan,nan,nan,nan,2.8808605670928955,3.6808605670928953,0.0015170574188232422,1.0,1.0,0.0,-4.0,0.7280504583551562,-0.2572913922511794,0.2673431287345123,0.20571189395838452,0.0,0.0,0.0,0.0
11.00023889541626,0.667894,0.96632123,-4.0461273,-0.14849007396183136,nan,nan,nan,nan,nan,2.9957432746887207,3.7957432746887205,0.001535654067993164,1.0,1.0,0.0,-4.0,0.7328293553346947,-0.2345860281289824,0.3483579523680316,0.21318789298075072,0.0,0.0,0.0,0.0
11.101353883743286,0.69439447,1.0021182,-4.026443,-0.13858391548420437,nan,nan,nan,nan,nan,3.096553325653076,3.896553325653076,0.0007617473602294922,1.0,1.0,0.0,-4.0,0.7369477173748766,-0.19966219783906697,0.3878131670446891,0.20819605780841113,0.0,0.0,0.0,0.0
11.20113492012024,0.754955,1.0567731,-4.000403,-0.1191849376822828,nan,nan,nan,nan,nan,3.196612596511841,3.9966125965118406,0.0011658668518066406,1.0,1.0,0.0,-4.0,0.739426177308948,-0.16419979554595585,0.38978293453730073,0.19299196502765523,0.0,0.0,0.0,0.0
11.298973083496094,0.831885,1.1049509,-3.9786804,-0.09640453480085451,nan,nan,nan,nan,nan,3.2939398288726807,4.0939398288726805,0.0007379055023193359,1.0,1.0,0.0,-4.0,0.741204176038864,-0.11816046164096121,0.36563196054589986,0.1678397702642204,0.0,0.0,0.0,0.0
11.397028923034668,0.8881261,1.134045,-3.9664114,-0.07974694138878458,nan,nan,nan,nan,nan,3.3918392658233643,4.191839265823364,0.0006139278411865234,1.0,1.0,0.0,-4.0,0.7417273971148773,-0.0576312294098611,0.3085248577558536,0.13314388464098678,0.0,0.0,0.0,0.0
11.494770765304565,0.95170534,1.1611394,-3.9547665,-0.060568099645514864,nan,nan,nan,nan,nan,3.4897618293762207,4.2897618293762205,0.0006754398345947266,1.0,1.0,0.0,-4.0,0.7412475171700645,-0.007197488538930789,0.2447179756800048,0.10421280168477778,0.0,0.0,0.0,0.0
11.595643043518066,1.0179046,1.1836915,-3.940257,-0.037992044015911074,nan,nan,nan,nan,nan,3.59045147895813,4.39045147895813,0.0015926361083984375,1.0,1.0,0.0,-4.0,0.7401816192320854,0.05563933939722771,0.1441894509047156,0.06920972162651856,0.0,0.0,0.0,0.0
11.700782775878906,1.05247,1.1938914,-3.9332802,-0.0243869597995606,nan,nan,nan,nan,nan,3.6962180137634277,4.496218013763428,0.0005862712860107422,1.0,1.0,0.0,-4.0,0.7387316843569162,0.10557180897867957,0.029861408318998722,0.038826342184622296,0.0,0.0,0.0,0.0
11.788318872451782,1.0828283,1.2015604,-3.9228868,-0.008896358505328234,nan,nan,nan,nan,nan,3.7831308841705322,4.583130884170532,0.0005755424499511719,1.0,1.0,0.0,-4.0,0.7374310029085461,0.13188933293949287,-0.06583557621669549,0.018318313821352107,0.0,0.0,0.0,0.0
11.901369094848633,1.0973598,1.2027394,-3.912775,0.0027682095046476715,nan,nan,nan,nan,nan,3.8969709873199463,4.696970987319946,0.0009286403656005859,1.0,1.0,0.0,-4.0,0.7364918586118404,0.13716002399005345,-0.15416034811066173,0.0015147254018161764,0.0,0.0,0.0,0.0
11.99524998664856,1.0970992,1.1959636,-3.9013903,0.012691445294091773,nan,nan,nan,nan,nan,3.990199565887451,4.790199565887451,0.0008118152618408203,1.0,1.0,0.0,-4.0,0.7358047038899731,0.12631126380689217,-0.21548425374727959,-0.009589040097346293,0.0,0.0,0.0,0.0
12.101661443710327,1.0851554,1.1847372,-3.8939927,0.01781337676821606,nan,nan,nan,nan,nan,4.0965895652771,4.896589565277099,0.0017197132110595703,1.0,1.0,0.0,-4.0,0.7356030540590119,0.10826140590891366,-0.24946523509523974,-0.015894382122418275,0.0,0.0,0.0,0.0
12.187259435653687,1.0679072,1.1693411,-3.881188,0.020635795707845475,nan,nan,nan,nan,nan,4.181991815567017,4.981991815567016,0.0014469623565673828,1.0,1.0,0.0,-4.0,0.7357587711106595,0.09071524457935247,-0.2579537515642151,-0.01944768102215936,0.0,0.0,0.0,0.0
12.292004346847534,1.0378183,1.1442028,-3.8681,0.022646516730792036,nan,nan,nan,nan,nan,4.286906719207764,5.0869067192077635,0.0007367134094238281,1.0,1.0,0.0,-4.0,0.735949969551921,0.07102794112286143,-0.23737264214973788,-0.021847175029237983,0.0,0.0,0.0,0.0
12.400755405426025,1.0084385,1.1205096,-3.8631656,0.023194065223510033,nan,nan,nan,nan,nan,4.396289587020874,5.196289587020874,0.0014700889587402344,1.0,1.0,0.0,-4.0,0.7355849842770139,0.05194644048161842,-0.18877236574429235,-0.023676295535606257,0.0,0.0,0.0,0.0
12.49820852279663,0.9804828,1.0983754,-3.8637097,0.023161450417315554,nan,nan,nan,nan,nan,4.493718385696411,5.293718385696411,0.0007517337799072266,1.0,1.0,0.0,-4.0,0.7343998468153728,0.03740976437991167,-0.13616863799305542,-0.025186893922081503,0.0,0.0,0.0,0.0
12.593687772750854,0.95981526,1.0829444,-3.8632665,0.022855018635304373,nan,nan,nan,nan,nan,4.588460922241211,5.388460922241211,0.0007960796356201172,1.0,1.0,0.0,-4.0,0.733273674742703,0.021459759138689555,-0.08042916735619227,-0.026560748748691385,0.0,0.0,0.0,0.0
12.690150022506714,0.93826485,1.0688293,-3.8622313,0.022220863931535457,nan,nan,nan,nan,nan,4.68513560295105,5.48513560295105,0.001483917236328125,1.0,1.0,0.0,-4.0,0.732222606245425,0.0009765584171831951,-0.022673726592365315,-0.02766931139158038,0.0,0.0,0.0,0.0
12.791857481002808,0.9218682,1.0565108,-3.869656,0.02107139481001305,nan,nan,nan,nan,nan,4.787282466888428,5.587282466888428,0.0015916824340820312,1.0,1.0,0.0,-4.0,0.7310845677619948,-0.019396147077353036,0.02719144256952727,-0.027795187010204715,0.0,0.0,0.0,0.0
12.890348672866821,0.915046,1.0538068,-3.8789313,0.020030897212389855,nan,nan,nan,nan,nan,4.885250568389893,5.685250568389892,0.0007522106170654297,1.0,1.0,0.0,-4.0,0.7293606912433621,-0.04017937147993045,0.07288239716085224,-0.02667453800619408,0.0,0.0,0.0,0.0
12.997608184814453,0.9126182,1.055697,-3.8903375,0.01872393011987834,nan,nan,nan,nan,nan,4.993333339691162,5.793333339691162,0.0014946460723876953,1.0,1.0,0.0,-4.0,0.7269865668216879,-0.07116990856233216,0.10917760701129502,-0.023236105338665183,0.0,0.0,0.0,0.0
13.097901821136475,0.91140366,1.0642327,-3.9015498,0.01725968643314375,nan,nan,nan,nan,nan,5.092691898345947,5.892691898345947,0.0005936622619628906,1.0,1.0,0.0,-4.0,0.7257666679762532,-0.08882267653766933,0.11393005236233229,-0.02036049678863582,0.0,0.0,0.0,0.0
13.193053722381592,0.91990614,1.0687792,-3.9083433,0.016488639061032744,nan,nan,nan,nan,nan,5.188719987869263,5.9887199878692625,0.0007588863372802734,1.0,1.0,0.0,-4.0,0.7249284989416788,-0.09080528944792893,0.11193029470910289,-0.018306577212568714,0.0,0.0,0.0,0.0
13.285916090011597,0.9327457,1.0810386,-3.914916,0.01578364949112885,nan,nan,nan,nan,nan,5.2808098793029785,6.080809879302978,0.0007674694061279297,1.0,1.0,0.0,-4.0,0.7244760941795185,-0.08156629273255608,0.10734877408619325,-0.016927246164502623,0.0,0.0,0.0,0.0
13.399396181106567,0.94345087,1.0948508,-3.9196675,0.015615472318429082,nan,nan,nan,nan,nan,5.385018825531006,6.185018825531006,0.0006246566772460938,1.0,1.0,0.0,-4.0,0.724473997969335,-0.07007743331293934,0.09273719998591826,-0.016333164594843744,0.0,0.0,0.0,0.0
13.500999927520752,0.9510189,1.108895,-3.924885,0.015980587156702288,nan,nan,nan,nan,nan,5.495792865753174,6.295792865753174,0.0015430450439453125,1.0,1.0,0.0,-4.0,0.72471959062338,-0.05468143141129855,0.0599113425940523,-0.017627270706610427,0.0,0.0,0.0,0.0
13.591856718063354,0.9535902,1.1194606,-3.932969,0.017215738895311375,nan,nan,nan,nan,nan,5.586975336074829,6.386975336074829,0.0017406940460205078,1.0,1.0,0.0,-4.0,0.7246053198722275,-0.03669501451247717,0.022692036801592486,-0.020100476267557947,0.0,0.0,0.0,0.0
13.691833257675171,0.9591323,1.1337799,-3.9440122,0.018870901961862804,nan,nan,nan,nan,nan,5.687342643737793,6.487342643737793,0.0014574527740478516,1.0,1.0,0.0,-4.0,0.7241199361301741,-0.018544530306342084,-0.011216398481237884,-0.022857846399469976,0.0,0.0,0.0,0.0
13.788365364074707,0.9626423,1.1443709,-3.9505987,0.020175514299312965,nan,nan,nan,nan,nan,5.783276319503784,6.583276319503784,0.0007517337799072266,1.0,1.0,0.0,-4.0,0.72361665698354,-0.003971481689248279,-0.032144289182516265,-0.025145335216929666,0.0,0.0,0.0,0.0
13.893254041671753,0.9668469,1.1542758,-3.9622803,0.021297466273175126,nan,nan,nan,nan,nan,5.888039827346802,6.688039827346802,0.001627206802368164,1.0,1.0,0.0,-4.0,0.7233723265831153,0.00946919751575813,-0.04439531767599783,-0.027120504609749446,0.0,0.0,0.0,0.0
13.993316173553467,0.9703386,1.157477,-3.9745111,0.021338400594565682,nan,nan,nan,nan,nan,5.988130807876587,6.788130807876587,0.0007958412170410156,1.0,1.0,0.0,-4.0,0.722593137380686,0.02384436648072446,-0.04136846536902414,-0.02759025589693758,0.0,0.0,0.0,0.0
14.101409196853638,0.9741612,1.1571654,-3.985407,0.020557399354128536,nan,nan,nan,nan,nan,6.096371173858643,6.896371173858642,0.0009379386901855469,1.0,1.0,0.0,-4.0,0.7219738174532729,0.03890596080948279,-0.030857443467843047,-0.026794326309608846,0.0,0.0,0.0,0.0
14.19655442237854,0.97472084,1.1542566,-3.9854875,0.01970282198701962,nan,nan,nan,nan,nan,6.1913371086120605,6.99133710861206,0.0008862018585205078,1.0,1.0,0.0,-4.0,0.7221074497742863,0.05200478406802055,-0.01929883404532132,-0.025289296099303197,0.0,0.0,0.0,0.0
14.298625230789185,0.97662765,1.1481299,-3.9870446,0.01823179240191416,nan,nan,nan,nan,nan,6.293524742126465,7.093524742126465,0.0007061958312988281,1.0,1.0,0.0,-4.0,0.7229586113424704,0.058441107258746405,-0.009049194669113336,-0.02355503910561509,0.0,0.0,0.0,0.0
14.39574408531189,0.9805217,1.1387786,-3.9882486,0.016560799233836486,nan,nan,nan,nan,nan,6.390532732009888,7.1905327320098875,0.0006134510040283203,1.0,1.0,0.0,-4.0,0.7237285959858591,0.05854855031305466,0.002263536102910262,-0.02152528634778278,0.0,0.0,0.0,0.0
14.490443468093872,0.98667175,1.1252114,-3.985946,0.014810572424958344,nan,nan,nan,nan,nan,6.486011505126953,7.286011505126953,0.001585245132446289,1.0,1.0,0.0,-4.0,0.7248153672243134,0.060524151661475074,0.014726430620935455,-0.01946684386523817,0.0,0.0,0.0,0.0
14.594193458557129,0.99157894,1.1078749,-3.9817574,0.01283424382585236,nan,nan,nan,nan,nan,6.589184045791626,7.389184045791626,0.0008063316345214844,1.0,1.0,0.0,-4.0,0.7257902256579346,0.05675250212322513,0.01989596240436612,-0.017586025896726757,0.0,0.0,0.0,0.0
14.692786455154419,0.99418676,1.0973765,-3.9749749,0.01189223154408008,nan,nan,nan,nan,nan,6.687706708908081,7.487706708908081,0.0007619857788085938,1.0,1.0,0.0,-4.0,0.7269404528372622,0.04390746710276896,0.017805746825742392,-0.015718559836098274,0.0,0.0,0.0,0.0
14.797954797744751,0.9970181,1.0839132,-3.9660606,0.0109362081260222,nan,nan,nan,nan,nan,6.79275918006897,7.5927591800689695,0.00177764892578125,1.0,1.0,0.0,-4.0,0.7282741216010991,0.023568051467741432,0.010634290523752008,-0.014184993841061673,0.0,0.0,0.0,0.0
14.90162205696106,1.0012101,1.0715818,-3.954309,0.010162925050126824,nan,nan,nan,nan,nan,6.8964972496032715,7.696497249603271,0.001664876937866211,1.0,1.0,0.0,-4.0,0.7292612185126881,0.004020373383191218,0.0023872695378289286,-0.01323797391910453,0.0,0.0,0.0,0.0
14.994826793670654,1.0053617,1.0647135,-3.947651,0.009646045039794186,nan,nan,nan,nan,nan,6.989736318588257,7.789736318588257,0.0007333755493164062,1.0,1.0,0.0,-4.0,0.7303105375712673,-0.011792042144957143,0.0006990105247541038,-0.012427741131834334,0.0,0.0,0.0,0.0
15.090924263000488,1.0091364,1.0589927,-3.9340212,0.009245323322934386,nan,nan,nan,nan,nan,7.085845708847046,7.885845708847046,0.0007631778717041016,1.0,1.0,0.0,-4.0,0.7314650466331656,-0.025501273506664104,-0.0003111724845061019,-0.011766673973103011,0.0,0.0,0.0,0.0
15.188751459121704,1.0100745,1.0514191,-3.9226592,0.009294023011458392,nan,nan,nan,nan,nan,7.1836466789245605,7.98364667892456,0.0007164478302001953,1.0,1.0,0.0,-4.0,0.7322332143219458,-0.031682452822855624,-0.0035561615404228622,-0.011482838956397623,0.0,0.0,0.0,0.0
15.295164823532104,1.010568,1.0463175,-3.9139185,0.009722167762611877,nan,nan,nan,nan,nan,7.2901451587677,8.090145158767701,0.000820159912109375,1.0,1.0,0.0,-4.0,0.7327542772195512,-0.029468205009798576,-0.012072006862208424,-0.011892659816039581,0.0,0.0,0.0,0.0
15.39657974243164,1.0097855,1.0435666,-3.9076514,0.010210532594220738,nan,nan,nan,nan,nan,7.391493797302246,8.191493797302247,0.0007319450378417969,1.0,1.0,0.0,-4.0,0.7329072903933398,-0.0268981524653608,-0.01492654490314368,-0.012473934110338482,0.0,0.0,0.0,0.0
15.494016170501709,1.002667,1.0410155,-3.908325,0.01079599177227424,nan,nan,nan,nan,nan,7.488803148269653,8.288803148269654,0.0006628036499023438,1.0,1.0,0.0,-4.0,0.7322759373666807,-0.02104554465375051,-0.025983919840183112,-0.013277194277129511,0.0,0.0,0.0,0.0
15.595538854598999,0.99576396,1.0376325,-3.910429,0.011294114448138158,nan,nan,nan,nan,nan,7.590316295623779,8.39031629562378,0.0005879402160644531,1.0,1.0,0.0,-4.0,0.7310403422604669,-0.01176411365841099,-0.03493843264755313,-0.013988726830562305,0.0,0.0,0.0,0.0
15.700704097747803,0.9837414,1.0343404,-3.9121795,0.011706852124216216,nan,nan,nan,nan,nan,7.696339130401611,8.496339130401612,0.0015866756439208984,1.0,1.0,0.0,-4.0,0.7298989234826582,-0.0024823402693800213,-0.03785303165302153,-0.014401841148848498,0.0,0.0,0.0,0.0
15.793609857559204,0.97250086,1.0324162,-3.9121006,0.011849311811423718,nan,nan,nan,nan,nan,7.789072513580322,8.589072513580323,0.0016360282897949219,1.0,1.0,0.0,-4.0,0.7291631459825436,0.00326329869535855,-0.03762290362460749,-0.014609271233479772,0.0,0.0,0.0,0.0
15.891181707382202,0.96154135,1.0310348,-3.9127336,0.011843192598513295,nan,nan,nan,nan,nan,7.8859498500823975,8.685949850082398,0.0015485286712646484,1.0,1.0,0.0,-4.0,0.7287375308383989,0.007288536738606719,-0.03871420117527837,-0.014768310174119306,0.0,0.0,0.0,0.0
15.990238904953003,0.94743496,1.0348635,-3.9124057,0.012513296845387989,nan,nan,nan,nan,nan,7.985437631607056,8.785437631607056,0.0019402503967285156,1.0,1.0,0.0,-4.0,0.7285287912268983,0.001360418490568537,-0.03934654591413748,-0.015426653437138605,0.0,0.0,0.0,0.0
16.09459900856018,0.93703663,1.0354948,-3.918396,0.012635114587109232,nan,nan,nan,nan,nan,8.089428186416626,8.889428186416627,0.0007624626159667969,1.0,1.0,0.0,-4.0,0.7280271504222948,-0.004321797124685707,-0.029799576542444754,-0.015914938395426903,0.0,0.0,0.0,0.0
16.195707321166992,0.9332607,1.0307351,-3.9214582,0.01179871743794113,nan,nan,nan,nan,nan,8.190612316131592,8.990612316131593,0.0007064342498779297,1.0,1.0,0.0,-4.0,0.727230617174254,-0.0015174847239440513,-0.006657274552098863,-0.015330315266728687,0.0,0.0,0.0,0.0
16.29348373413086,0.93198216,1.0241436,-3.9249265,0.010582018334094345,nan,nan,nan,nan,nan,8.289027690887451,9.089027690887452,0.0015795230865478516,1.0,1.0,0.0,-4.0,0.7269449400589829,0.008996419949424177,0.015576200594769262,-0.014118027391655994,0.0,0.0,0.0,0.0
16.4009952545166,0.9322073,1.0172595,-3.9313,0.009526128794236616,nan,nan,nan,nan,nan,8.395931482315063,9.195931482315064,0.0007288455963134766,1.0,1.0,0.0,-4.0,0.726371765247866,0.022357505256865664,0.035976770358002806,-0.01277812523072621,0.0,0.0,0.0,0.0
16.498292446136475,0.9333038,1.013743,-3.9337,0.009547444553075695,nan,nan,nan,nan,nan,8.493199348449707,9.293199348449708,0.0016336441040039062,1.0,1.0,0.0,-4.0,0.7260728326103884,0.02522200548586981,0.043877916502863476,-0.01242290929534151,0.0,0.0,0.0,0.0
16.597910165786743,0.93237334,1.0130728,-3.9307926,0.01028429670068598,nan,nan,nan,nan,nan,8.59343671798706,9.393436717987061,0.0014653205871582031,1.0,1.0,0.0,-4.0,0.7262350038932648,0.019086158626469042,0.041355899214675786,-0.01277361785794367,0.0,0.0,0.0,0.0
16.69045901298523,0.9315709,1.0108739,-3.921961,0.011605069012885895,nan,nan,nan,nan,nan,8.685924053192139,9.48592405319214,0.0021619796752929688,1.0,1.0,0.0,-4.0,0.7270952449805663,0.006139072257355644,0.02963971241657406,-0.01383963087736408,0.0,0.0,0.0,0.0
16.799827098846436,0.93289584,1.0095221,-3.9149845,0.012156855011752147,nan,nan,nan,nan,nan,8.79652738571167,9.59652738571167,0.0030677318572998047,1.0,1.0,0.0,-4.0,0.728323537111251,-0.0033901528579390267,0.01777687710962118,-0.014772492328813735,0.0,0.0,0.0,0.0
16.89578151702881,0.9381456,1.0135667,-3.8984377,0.012964158911687788,nan,nan,nan,nan,nan,8.891236543655396,9.691236543655396,0.0015726089477539062,1.0,1.0,0.0,-4.0,0.7297438383377345,-0.01577169453164229,0.01084300587715196,-0.015579952207344051,0.0,0.0,0.0,0.0
16.983097553253174,0.93972147,1.015272,-3.8872085,0.01301442521945914,nan,nan,nan,nan,nan,8.979064226150513,9.779064226150513,0.0019981861114501953,1.0,1.0,0.0,-4.0,0.7317631879393612,-0.028707343495984174,0.003952143347777208,-0.016185645891884856,0.0,0.0,0.0,0.0
17.09613823890686,0.9417276,1.0197649,-3.8768728,0.012961092632760685,nan,nan,nan,nan,nan,9.091296195983887,9.891296195983887,0.0008349418640136719,1.0,1.0,0.0,-4.0,0.7329972056356315,-0.03448613422639667,-0.00029430062024965665,-0.01616188780514695,0.0,0.0,0.0,0.0
17.190169095993042,0.9434199,1.0254716,-3.870216,0.012955894377335488,nan,nan,nan,nan,nan,9.185583114624023,9.985583114624024,0.0008935928344726562,1.0,1.0,0.0,-4.0,0.7334118207378275,-0.03679029308400722,-0.0029536299305207114,-0.016206259522773967,0.0,0.0,0.0,0.0
17.283296585083008,0.9439817,1.0336031,-3.8642218,0.013034088019284417,nan,nan,nan,nan,nan,9.278635501861572,10.078635501861573,0.0014646053314208984,1.0,1.0,0.0,-4.0,0.7333633943460317,-0.03492501807492162,-0.006247539545653024,-0.016338742266731262,0.0,0.0,0.0,0.0
17.38957643508911,0.9439798,1.042533,-3.8605814,0.013257350206300146,nan,nan,nan,nan,nan,9.384908676147461,10.184908676147462,0.0014526844024658203,1.0,1.0,0.0,-4.0,0.7330665820887884,-0.032771208465956575,-0.009911861656840944,-0.01666208931270795,0.0,0.0,0.0,0.0
17.49275302886963,0.94158757,1.0417029,-3.8576133,0.013083967711285897,nan,nan,nan,nan,nan,9.487786054611206,10.287786054611207,0.0007641315460205078,1.0,1.0,0.0,-4.0,0.7324969517523776,-0.01847407571735565,-0.013546382489925252,-0.016684307472670266,0.0,0.0,0.0,0.0
17.59642004966736,0.9403563,1.0397524,-3.8585002,0.012163011675286365,nan,nan,nan,nan,nan,9.591280460357666,10.391280460357667,0.0007066726684570312,1.0,1.0,0.0,-4.0,0.7315937853683616,0.006655475358016691,-0.014772312085624587,-0.01587537734805531,0.0,0.0,0.0,0.0
17.692946195602417,0.9421522,1.0372638,-3.8616197,0.011202641829669492,nan,nan,nan,nan,nan,9.688282251358032,10.488282251358033,0.0014884471893310547,1.0,1.0,0.0,-4.0,0.7305899265173076,0.02664380860736234,-0.010001303178106262,-0.014608079532182015,0.0,0.0,0.0,0.0
17.802276372909546,0.95239174,1.029317,-3.869296,0.009041859095267068,nan,nan,nan,nan,nan,9.79770541191101,10.597705411911011,0.0014672279357910156,1.0,1.0,0.0,-4.0,0.7292900072286274,0.04533728589303068,0.00495883689302626,-0.012738565888535294,0.0,0.0,0.0,0.0
17.89322066307068,0.9588792,1.0250534,-3.8733313,0.007993069495061877,nan,nan,nan,nan,nan,9.888696670532227,10.688696670532227,0.0007524490356445312,1.0,1.0,0.0,-4.0,0.7282986560478365,0.054373590592775786,0.020567947386161422,-0.011265723035512987,0.0,0.0,0.0,0.0
17.994773387908936,0.97374904,1.021723,-3.8785,0.006550400440397028,nan,nan,nan,nan,nan,9.990361452102661,10.790361452102662,0.0016050338745117188,1.0,1.0,0.0,-4.0,0.7273340062391753,0.05395337457416415,0.03773568209342459,-0.009884771658762259,0.0,0.0,0.0,0.0
18.094773292541504,0.9823284,1.021388,-3.8819084,0.005911301021628948,nan,nan,nan,nan,nan,10.089639663696289,10.88963966369629,0.00177001953125,1.0,1.0,0.0,-4.0,0.7265162676488315,0.03406679953017885,0.05150726093102415,-0.008494020008142755,0.0,0.0,0.0,0.0
18.200416088104248,0.99557114,1.019745,-3.8879156,0.005137482514145405,nan,nan,nan,nan,nan,10.195944786071777,10.995944786071778,0.000774383544921875,1.0,1.0,0.0,-4.0,0.7259746470674041,0.008237974690264022,0.05087438194271634,-0.007285080352074437,0.0,0.0,0.0,0.0
18.2928524017334,1.0095359,1.0152229,-3.8935473,0.004165279479675027,nan,nan,nan,nan,nan,10.289409637451172,11.089409637451173,0.002404451370239258,1.0,1.0,0.0,-4.0,0.7257339918825535,-0.0029979257866725984,0.048347461658563594,-0.006225585014539261,0.0,0.0,0.0,0.0
18.39096164703369,1.018148,1.0139732,-3.8841927,0.003444333283265993,nan,nan,nan,nan,nan,10.385820150375366,11.185820150375367,0.0007414817810058594,1.0,1.0,0.0,-4.0,0.7262719071433265,-0.01439436712293408,0.03527505295935068,-0.005018422837982123,0.0,0.0,0.0,0.0
18.496103048324585,1.0220416,1.0221024,-3.8755662,0.0033042645094110263,nan,nan,nan,nan,nan,10.490951299667358,11.290951299667359,0.0007650852203369141,1.0,1.0,0.0,-4.0,0.7277199370332504,-0.03419343936680955,0.00676107922713606,-0.004192803939674247,0.0,0.0,0.0,0.0
18.597984075546265,1.026402,1.0330526,-3.866815,0.003456760525141803,nan,nan,nan,nan,nan,10.592848539352417,11.392848539352418,0.0006842613220214844,1.0,1.0,0.0,-4.0,0.7290329717826727,-0.05292113899034204,-0.018156272305898776,-0.004416652702766298,0.0,0.0,0.0,0.0
18.687641620635986,1.0271263,1.0393003,-3.862593,0.0035947701314754943,nan,nan,nan,nan,nan,10.68255615234375,11.48255615234375,0.0007550716400146484,1.0,1.0,0.0,-4.0,0.7298540062723082,-0.05906172316030931,-0.03194535715050117,-0.004967257419833894,0.0,0.0,0.0,0.0
18.791699409484863,1.021509,1.0504172,-3.8556867,0.0041010974548844,nan,nan,nan,nan,nan,10.786521673202515,11.586521673202515,0.0006854534149169922,1.0,1.0,0.0,-4.0,0.7307855995535268,-0.057629739716167486,-0.05029452039938972,-0.006107537663985326,0.0,0.0,0.0,0.0
18.88253402709961,1.0200562,1.0593036,-3.8447666,0.004613538954336912,nan,nan,nan,nan,nan,10.877467632293701,11.677467632293702,0.000896453857421875,1.0,1.0,0.0,-4.0,0.7315200573251823,-0.04649524064285625,-0.05529505523110977,-0.0068503758949788355,0.0,0.0,0.0,0.0
18.99537968635559,1.0108765,1.066806,-3.8272853,0.005324580425804611,nan,nan,nan,nan,nan,10.991781949996948,11.791781949996949,0.0015366077423095703,1.0,1.0,0.0,-4.0,0.7323458523961468,-0.03023762137605734,-0.053592371738540416,-0.007293048173628515,0.0,0.0,0.0,0.0
19.09605121612549,1.0048132,1.0703849,-3.8181553,0.005760925798778401,nan,nan,nan,nan,nan,11.092547178268433,11.892547178268433,0.0023818016052246094,1.0,1.0,0.0,-4.0,0.733633429128512,-0.003616187487450492,-0.04900817316953412,-0.007778575258830912,0.0,0.0,0.0,0.0
19.182481288909912,0.99988836,1.072151,-3.8137677,0.006098767106520912,nan,nan,nan,nan,nan,11.178101062774658,11.978101062774659,0.001791238784790039,1.0,1.0,0.0,-4.0,0.7340258081264591,0.015978218004946688,-0.0391524471858372,-0.007859101040687115,0.0,0.0,0.0,0.0
19.299368858337402,0.98988,1.0755098,-3.8044312,0.0061556119962251545,nan,nan,nan,nan,nan,11.294163942337036,12.094163942337037,0.0008327960968017578,1.0,1.0,0.0,-4.0,0.7342648657055693,0.034295709478852,-0.02401889370874511,-0.007833561790407081,0.0,0.0,0.0,0.0
19.396907806396484,0.98418224,1.0769707,-3.7991698,0.00567476097822942,nan,nan,nan,nan,nan,11.392525672912598,12.192525672912598,0.0014781951904296875,1.0,1.0,0.0,-4.0,0.7341483384845081,0.040555969055263874,-0.00974387064423645,-0.007483194640854528,0.0,0.0,0.0,0.0
19.490597248077393,0.9830671,1.0729531,-3.8067646,0.005222401842322495,nan,nan,nan,nan,nan,11.485386371612549,12.28538637161255,0.0010166168212890625,1.0,1.0,0.0,-4.0,0.7328403872016167,0.04347785885618441,0.00968277551591557,-0.006806678271140617,0.0,0.0,0.0,0.0
19.596598863601685,0.9821584,1.0617917,-3.8242729,0.004570955348937216,nan,nan,nan,nan,nan,11.592328786849976,12.392328786849976,0.0017845630645751953,1.0,1.0,0.0,-4.0,0.7299990604770995,0.04635059557569606,0.02490590307394463,-0.006255322540168226,0.0,0.0,0.0,0.0
19.699875116348267,0.9817624,1.0522727,-3.8367946,0.00408267849462793,nan,nan,nan,nan,nan,11.694657564163208,12.494657564163209,0.0005960464477539062,1.0,1.0,0.0,-4.0,0.7280744457337426,0.04833536578127492,0.02866696195629406,-0.0058605390888756565,0.0,0.0,0.0,0.0
19.78795576095581,0.9824394,1.0422564,-3.848636,0.003542787059884641,nan,nan,nan,nan,nan,11.782865047454834,12.582865047454835,0.0007317066192626953,1.0,1.0,0.0,-4.0,0.7260630360259658,0.04694778600187257,0.029738538247240737,-0.005277527387996975,0.0,0.0,0.0,0.0
19.88944125175476,0.98873997,1.030604,-3.8560622,0.0028994656471222407,nan,nan,nan,nan,nan,11.884289741516113,12.684289741516114,0.0006699562072753906,1.0,1.0,0.0,-4.0,0.724712070139259,0.03877209633008837,0.032400027266019586,-0.004615024019279638,0.0,0.0,0.0,0.0
19.99968409538269,0.9980592,1.0195854,-3.8621805,0.002380706700507308,nan,nan,nan,nan,nan,11.995211839675903,12.795211839675904,0.0017383098602294922,1.0,1.0,0.0,-4.0,0.7244603090200152,0.026267260010188087,0.036105080678671284,-0.004021793158899813,0.0,0.0,0.0,0.0
20.099175930023193,1.0066146,1.0145937,-3.8694217,0.0020002817088950273,nan,nan,nan,nan,nan,12.09411358833313,12.89411358833313,0.0007441043853759766,1.0,1.0,0.0,-4.0,0.7245080615349091,0.012116985166215432,0.03693358770249694,-0.0034720781557966134,0.0,0.0,0.0,0.0
20.200387477874756,1.015956,1.0140058,-3.878807,0.001674886202248961,nan,nan,nan,nan,nan,12.195313930511475,12.995313930511475,0.0016384124755859375,1.0,1.0,0.0,-4.0,0.7244265547429892,-0.011141504902037825,0.03369430232615521,-0.0027318952996649324,0.0,0.0,0.0,0.0
20.293636560440063,1.02493,1.0160596,-3.8870542,0.0015833225060041482,nan,nan,nan,nan,nan,12.288689374923706,13.088689374923707,0.0006372928619384766,1.0,1.0,0.0,-4.0,0.7243698324217839,-0.03570257826174885,0.028660364156954155,-0.0021652312993714774,0.0,0.0,0.0,0.0
20.40067958831787,1.0295297,1.0183122,-3.8857467,0.0016283581084638394,nan,nan,nan,nan,nan,12.395418405532837,13.195418405532838,0.0016143321990966797,1.0,1.0,0.0,-4.0,0.7247702163133395,-0.058244039422927614,0.01666845946775249,-0.0018989901753102545,0.0,0.0,0.0,0.0
20.486568927764893,1.0359744,1.0279071,-3.8869643,0.0018071815820766947,nan,nan,nan,nan,nan,12.482016801834106,13.282016801834107,0.0007333755493164062,1.0,1.0,0.0,-4.0,0.7254263908875489,-0.06659945857381686,0.005703818568664384,-0.0020589611216798314,0.0,0.0,0.0,0.0
20.589807510375977,1.0431046,1.0411018,-3.883554,0.002024255852042694,nan,nan,nan,nan,nan,12.584720373153687,13.384720373153687,0.0015120506286621094,1.0,1.0,0.0,-4.0,0.7261285237475722,-0.07406675584938979,-0.004838736815031617,-0.0024785707579603193,0.0,0.0,0.0,0.0
20.69387197494507,1.050685,1.0538976,-3.8741915,0.0021136571365119178,nan,nan,nan,nan,nan,12.688789367675781,13.488789367675782,0.0007741451263427734,1.0,1.0,0.0,-4.0,0.7279056582197829,-0.07176011774853962,-0.00837027149378622,-0.0028419641249706287,0.0,0.0,0.0,0.0
20.797451734542847,1.0577341,1.065468,-3.863666,0.0020509492533472415,nan,nan,nan,nan,nan,12.792370319366455,13.592370319366456,0.0007152557373046875,1.0,1.0,0.0,-4.0,0.7300425682210153,-0.05780477381906755,-0.007238280862872528,-0.0028156374101313587,0.0,0.0,0.0,0.0
20.89520573616028,1.0621867,1.0728182,-3.8561587,0.002111556996366285,nan,nan,nan,nan,nan,12.89014196395874,13.690141963958741,0.0007414817810058594,1.0,1.0,0.0,-4.0,0.7313973271458305,-0.03300205828770872,-0.007861887050751517,-0.002826925298649742,0.0,0.0,0.0,0.0
20.99642825126648,1.0572175,1.0754732,-3.8496842,0.0021827422231592286,nan,nan,nan,nan,nan,12.991186141967773,13.791186141967774,0.0005304813385009766,1.0,1.0,0.0,-4.0,0.7320202150683677,-0.0002932154376053106,-0.017163013455341648,-0.003061515867591638,0.0,0.0,0.0,0.0
21.10139775276184,1.0447576,1.0761739,-3.8428435,0.002277393802626995,nan,nan,nan,nan,nan,13.096262216567993,13.896262216567994,0.0005559921264648438,1.0,1.0,0.0,-4.0,0.7323860593020938,0.030009144570255223,-0.03650917540838969,-0.003290993881733354,0.0,0.0,0.0,0.0
21.196122884750366,1.031759,1.0729729,-3.8387434,0.0022644184047374023,nan,nan,nan,nan,nan,13.191693544387817,13.991693544387818,0.0015676021575927734,1.0,1.0,0.0,-4.0,0.7326156096096167,0.04741703811282578,-0.05327865532881931,-0.0031223553360080086,0.0,0.0,0.0,0.0
21.290181398391724,1.0259663,1.0647806,-3.8359432,0.0023144386956282133,nan,nan,nan,nan,nan,13.285726547241211,14.085726547241212,0.001621246337890625,1.0,1.0,0.0,-4.0,0.7326022191660787,0.06565445300255389,-0.058625853923167895,-0.0025656054098504104,0.0,0.0,0.0,0.0
21.38555598258972,1.0100694,1.0439345,-3.8353713,0.002779794098777243,nan,nan,nan,nan,nan,13.38282823562622,14.182828235626221,0.001476287841796875,1.0,1.0,0.0,-4.0,0.7323732977137456,0.08138838122701747,-0.05516583667803976,-0.0022162548046533396,0.0,0.0,0.0,0.0
21.49070644378662,1.0002915,1.02859,-3.837528,0.003198547131291392,nan,nan,nan,nan,nan,13.485871076583862,14.285871076583863,0.0007319450378417969,1.0,1.0,0.0,-4.0,0.7316393269529397,0.09665384053433058,-0.04681985468572167,-0.002378815609298681,0.0,0.0,0.0,0.0
21.58979845046997,0.9889472,1.0064925,-3.8422937,0.0038055085971582395,nan,nan,nan,nan,nan,13.584753274917603,14.384753274917603,0.0009319782257080078,1.0,1.0,0.0,-4.0,0.7307174289825075,0.0915951866247693,-0.026198906861081506,-0.003537886832064792,0.0,0.0,0.0,0.0
21.693914890289307,0.97986835,0.9933738,-3.8451128,0.004026170954559681,nan,nan,nan,nan,nan,13.689432621002197,14.489432621002198,0.0015010833740234375,1.0,1.0,0.0,-4.0,0.7301060330712166,0.07249843358496384,-0.012330074246449312,-0.00445889201850348,0.0,0.0,0.0,0.0
21.798282146453857,0.97335184,0.97648865,-3.8470898,0.004139585939006209,nan,nan,nan,nan,nan,13.794120073318481,14.594120073318482,0.001508474349975586,1.0,1.0,0.0,-4.0,0.7294940950606198,0.03519797818573087,0.008015170705459963,-0.005466253360549765,0.0,0.0,0.0,0.0
21.894397735595703,0.9697983,0.9701773,-3.849034,0.004116457699022993,nan,nan,nan,nan,nan,13.889949083328247,14.689949083328248,0.0015213489532470703,1.0,1.0,0.0,-4.0,0.7291457126524341,0.004753469437435426,0.021020070433835407,-0.005810631855777805,0.0,0.0,0.0,0.0
22.000524044036865,0.9699443,0.9678209,-3.8535235,0.0039244406844887725,nan,nan,nan,nan,nan,13.996028184890747,14.796028184890748,0.0016093254089355469,1.0,1.0,0.0,-4.0,0.7285728085930703,-0.04005830631314989,0.03491662980839529,-0.005600194258159043,0.0,0.0,0.0,0.0
22.0926296710968,0.97349286,0.96981424,-3.8580563,0.0036304691956181526,nan,nan,nan,nan,nan,14.088076114654541,14.888076114654542,0.0011761188507080078,1.0,1.0,0.0,-4.0,0.7282666672993128,-0.06606825277076706,0.044469731570694136,-0.0050303565302864724,0.0,0.0,0.0,0.0
22.1931095123291,0.9772005,0.9748209,-3.8603578,0.0030383626468830447,nan,nan,nan,nan,nan,14.187918186187744,14.987918186187745,0.0005469322204589844,1.0,1.0,0.0,-4.0,0.7280518620208754,-0.08911892637677493,0.049880135679653576,-0.003723046029171021,0.0,0.0,0.0,0.0
22.29064130783081,0.9770821,0.9817826,-3.8669999,0.002687942436922236,nan,nan,nan,nan,nan,14.286113977432251,15.086113977432252,0.0007555484771728516,1.0,1.0,0.0,-4.0,0.7276305414714479,-0.09458929288255698,0.04330617978375942,-0.00279129769158191,0.0,0.0,0.0,0.0
22.397709846496582,0.98212856,0.9938712,-3.8770638,0.0024746796261165957,nan,nan,nan,nan,nan,14.393160343170166,15.193160343170167,0.0011112689971923828,1.0,1.0,0.0,-4.0,0.7266943285166129,-0.08750553101634584,0.030814065436483472,-0.0024109900619510107,0.0,0.0,0.0,0.0
22.49249839782715,0.98907316,1.0069679,-3.8856385,0.002387444515452045,nan,nan,nan,nan,nan,14.487468481063843,15.287468481063843,0.0008141994476318359,1.0,1.0,0.0,-4.0,0.7258359236653749,-0.07418836452138614,0.02428068410243291,-0.0023125595891953232,0.0,0.0,0.0,0.0
22.589182138442993,0.9961569,1.0210509,-3.8920295,0.002382831469896142,nan,nan,nan,nan,nan,14.584268569946289,15.38426856994629,0.0008437633514404297,1.0,1.0,0.0,-4.0,0.7255709855525597,-0.05728979397001621,0.018516467172853254,-0.0024024950765552163,0.0,0.0,0.0,0.0
22.69815421104431,1.0020406,1.0332677,-3.8961096,0.002080810587787356,nan,nan,nan,nan,nan,14.692882299423218,15.492882299423218,0.0005700588226318359,1.0,1.0,0.0,-4.0,0.7256893684378048,-0.030139164374863577,0.011013717159283903,-0.0024648850070496517,0.0,0.0,0.0,0.0
22.786308526992798,1.012428,1.0387689,-3.8992827,0.0015572578393078396,nan,nan,nan,nan,nan,14.781207084655762,15.581207084655762,0.0007181167602539062,1.0,1.0,0.0,-4.0,0.7258063184606987,-0.006897210490538678,0.009869620293235197,-0.0021265102935131494,0.0,0.0,0.0,0.0
22.89656901359558,1.0201942,1.0405141,-3.8993983,0.0008069968066138165,nan,nan,nan,nan,nan,14.891526937484741,15.691526937484742,0.0019283294677734375,1.0,1.0,0.0,-4.0,0.7259970054547727,0.026185955596300717,0.010972940683544838,-0.001335746254098657,0.0,0.0,0.0,0.0
22.998322248458862,1.0228537,1.0383742,-3.8971393,0.0002655465650629532,nan,nan,nan,nan,nan,14.993076086044312,15.793076086044312,0.0005505084991455078,1.0,1.0,0.0,-4.0,0.7267324870860921,0.05283313056184797,0.004681336979907348,-0.0006930348637781315,0.0,0.0,0.0,0.0
